{"type":"FeatureCollection","name":"localtwin-hapjeong","metadata":{"source":"OpenStreetMap via Overpass API","source_url":"https://www.openstreetmap.org/","license":"ODbL 1.0","attribution":"© OpenStreetMap contributors","retrieved_at":"2026-07-10T19:34:22+00:00","center":[126.914,37.5505],"radius_meters":720,"feature_count":5157,"clip_crs":"EPSG:5179"},"features":[{"type":"Feature","properties":{"osm_id":"node/2370757918","name":"이마트24","layer":"poi","category":"convenience"},"geometry":{"type":"Point","coordinates":[126.92040980000002,37.5535711]}},{"type":"Feature","properties":{"osm_id":"node/2721261099","name":"7-Eleven","layer":"poi","category":"convenience"},"geometry":{"type":"Point","coordinates":[126.90981920000002,37.55564509999999]}},{"type":"Feature","properties":{"osm_id":"node/3031183037","name":"GS25","layer":"poi","category":"convenience"},"geometry":{"type":"Point","coordinates":[126.9072034,37.5513139]}},{"type":"Feature","properties":{"osm_id":"node/3031183542","name":"Time Store","layer":"poi","category":"convenience"},"geometry":{"type":"Point","coordinates":[126.9065046,37.5507163]}},{"type":"Feature","properties":{"osm_id":"node/3033931390","name":"백년토종삼계탕","layer":"poi","category":"restaurant"},"geometry":{"type":"Point","coordinates":[126.9201808,37.5538547]}},{"type":"Feature","properties":{"osm_id":"node/3033931431","name":"커피와사람들","layer":"poi","category":"cafe"},"geometry":{"type":"Point","coordinates":[126.9196256,37.554643000000006]}},{"type":"Feature","properties":{"osm_id":"node/3033945607","name":"김앤김 대게전문점","layer":"poi","category":"restaurant"},"geometry":{"type":"Point","coordinates":[126.91868100000002,37.55276049999999]}},{"type":"Feature","properties":{"osm_id":"node/3036692347","name":"본죽 합정역","layer":"poi","category":"restaurant"},"geometry":{"type":"Point","coordinates":[126.9159338,37.5514169]}},{"type":"Feature","properties":{"osm_id":"node/3036954333","name":"CU","layer":"poi","category":"convenience"},"geometry":{"type":"Point","coordinates":[126.9059364,37.5511562]}},{"type":"Feature","properties":{"osm_id":"node/3038865933","name":"GS25","layer":"poi","category":"convenience"},"geometry":{"type":"Point","coordinates":[126.9082872,37.54920210000001]}},{"type":"Feature","properties":{"osm_id":"node/3067828056","name":"GS25","layer":"poi","category":"convenience"},"geometry":{"type":"Point","coordinates":[126.90942830000002,37.55145600000001]}},{"type":"Feature","properties":{"osm_id":"node/3071551633","name":"","layer":"poi","category":"subway_entrance"},"geometry":{"type":"Point","coordinates":[126.91010309999999,37.555942]}},{"type":"Feature","properties":{"osm_id":"node/3071551733","name":"","layer":"poi","category":"subway_entrance"},"geometry":{"type":"Point","coordinates":[126.91025930000002,37.55599900000001]}},{"type":"Feature","properties":{"osm_id":"node/3072637855","name":"","layer":"poi","category":"subway_entrance"},"geometry":{"type":"Point","coordinates":[126.913375,37.54979010000001]}},{"type":"Feature","properties":{"osm_id":"node/3072637856","name":"","layer":"poi","category":"subway_entrance"},"geometry":{"type":"Point","coordinates":[126.913624,37.5487711]}},{"type":"Feature","properties":{"osm_id":"node/3073421917","name":"","layer":"poi","category":"subway_entrance"},"geometry":{"type":"Point","coordinates":[126.9139171,37.549893600000004]}},{"type":"Feature","properties":{"osm_id":"node/3073421918","name":"","layer":"poi","category":"subway_entrance"},"geometry":{"type":"Point","coordinates":[126.91417200000001,37.54949319999999]}},{"type":"Feature","properties":{"osm_id":"node/3073421919","name":"","layer":"poi","category":"subway_entrance"},"geometry":{"type":"Point","coordinates":[126.91399530000001,37.549042799999995]}},{"type":"Feature","properties":{"osm_id":"node/3073421920","name":"","layer":"poi","category":"subway_entrance"},"geometry":{"type":"Point","coordinates":[126.91291729999999,37.5494092]}},{"type":"Feature","properties":{"osm_id":"node/3074407207","name":"카페달작 (Cafe Daljak)","layer":"poi","category":"cafe"},"geometry":{"type":"Point","coordinates":[126.9090598,37.54940440000001]}},{"type":"Feature","properties":{"osm_id":"node/3112091729","name":"","layer":"poi","category":"cafe"},"geometry":{"type":"Point","coordinates":[126.90775530000002,37.5492299]}},{"type":"Feature","properties":{"osm_id":"node/3121496729","name":"","layer":"poi","category":"subway_entrance"},"geometry":{"type":"Point","coordinates":[126.9156807,37.55100840000001]}},{"type":"Feature","properties":{"osm_id":"node/3121496829","name":"","layer":"poi","category":"subway_entrance"},"geometry":{"type":"Point","coordinates":[126.915912,37.550786900000006]}},{"type":"Feature","properties":{"osm_id":"node/3121496929","name":"","layer":"poi","category":"subway_entrance"},"geometry":{"type":"Point","coordinates":[126.91515300000002,37.5502054]}},{"type":"Feature","properties":{"osm_id":"node/3121497029","name":"","layer":"poi","category":"subway_entrance"},"geometry":{"type":"Point","coordinates":[126.91497210000001,37.55054539999999]}},{"type":"Feature","properties":{"osm_id":"node/3136142929","name":"Rubens","layer":"poi","category":"cafe"},"geometry":{"type":"Point","coordinates":[126.91007880000001,37.5511283]}},{"type":"Feature","properties":{"osm_id":"node/3137894129","name":"Sushi Kimpura","layer":"poi","category":"restaurant"},"geometry":{"type":"Point","coordinates":[126.91647800000001,37.5539548]}},{"type":"Feature","properties":{"osm_id":"node/3151941461","name":"세븐일레븐","layer":"poi","category":"convenience"},"geometry":{"type":"Point","coordinates":[126.9104584,37.55035459999999]}},{"type":"Feature","properties":{"osm_id":"node/3171845561","name":"VRVC","layer":"poi","category":"cafe"},"geometry":{"type":"Point","coordinates":[126.914338,37.546277999999994]}},{"type":"Feature","properties":{"osm_id":"node/3204039861","name":"마을","layer":"poi","category":"cafe"},"geometry":{"type":"Point","coordinates":[126.9066251,37.55087739999999]}},{"type":"Feature","properties":{"osm_id":"node/3210341861","name":"타코 브리즈 (Taco Breeze)","layer":"poi","category":"cafe"},"geometry":{"type":"Point","coordinates":[126.9105667,37.55300079999999]}},{"type":"Feature","properties":{"osm_id":"node/3222763462","name":"라이브 7089 (Live 7080)","layer":"poi","category":"cafe"},"geometry":{"type":"Point","coordinates":[126.9097227,37.5487577]}},{"type":"Feature","properties":{"osm_id":"node/3222763561","name":"","layer":"poi","category":"restaurant"},"geometry":{"type":"Point","coordinates":[126.90968519999998,37.5487257]}},{"type":"Feature","properties":{"osm_id":"node/3343370793","name":"Chou chou ga","layer":"poi","category":"bakery"},"geometry":{"type":"Point","coordinates":[126.91108119999998,37.5511093]}},{"type":"Feature","properties":{"osm_id":"node/3343370893","name":"","layer":"poi","category":"cafe"},"geometry":{"type":"Point","coordinates":[126.91109430000002,37.5510517]}},{"type":"Feature","properties":{"osm_id":"node/3349514395","name":"Cafe Druwa","layer":"poi","category":"cafe"},"geometry":{"type":"Point","coordinates":[126.9113437,37.54991389999999]}},{"type":"Feature","properties":{"osm_id":"node/3349538593","name":"이디야커피","layer":"poi","category":"cafe"},"geometry":{"type":"Point","coordinates":[126.91050779999999,37.549556]}},{"type":"Feature","properties":{"osm_id":"node/3377362193","name":"학 쌀롱","layer":"poi","category":"bar"},"geometry":{"type":"Point","coordinates":[126.9070265,37.5526193]}},{"type":"Feature","properties":{"osm_id":"node/3394744993","name":"스타벅스","layer":"poi","category":"cafe"},"geometry":{"type":"Point","coordinates":[126.91433960000002,37.548994799999996]}},{"type":"Feature","properties":{"osm_id":"node/3398948893","name":"Wei Bao","layer":"poi","category":"restaurant"},"geometry":{"type":"Point","coordinates":[126.9096508,37.55003270000001]}},{"type":"Feature","properties":{"osm_id":"node/3398948993","name":"가배두림 (Coffee Dream)","layer":"poi","category":"cafe"},"geometry":{"type":"Point","coordinates":[126.90976010000001,37.5501025]}},{"type":"Feature","properties":{"osm_id":"node/3407994693","name":"호남 (Honam)","layer":"poi","category":"restaurant"},"geometry":{"type":"Point","coordinates":[126.9068776,37.5525796]}},{"type":"Feature","properties":{"osm_id":"node/3407994794","name":"7-Eleven","layer":"poi","category":"convenience"},"geometry":{"type":"Point","coordinates":[126.90800050000001,37.55292010000001]}},{"type":"Feature","properties":{"osm_id":"node/3407995293","name":"나들가게","layer":"poi","category":"convenience"},"geometry":{"type":"Point","coordinates":[126.9082508,37.55248749999999]}},{"type":"Feature","properties":{"osm_id":"node/3407995294","name":"손탁식당 (Bistro de Sontag)","layer":"poi","category":"restaurant"},"geometry":{"type":"Point","coordinates":[126.90890780000001,37.55323460000001]}},{"type":"Feature","properties":{"osm_id":"node/3426168393","name":"마포 만두","layer":"poi","category":"restaurant"},"geometry":{"type":"Point","coordinates":[126.9152316,37.5511256]}},{"type":"Feature","properties":{"osm_id":"node/3443814721","name":"cyclo","layer":"poi","category":"cafe"},"geometry":{"type":"Point","coordinates":[126.91116639999998,37.54966700000001]}},{"type":"Feature","properties":{"osm_id":"node/3443815075","name":"cafe woong","layer":"poi","category":"cafe"},"geometry":{"type":"Point","coordinates":[126.9109894,37.549705200000005]}},{"type":"Feature","properties":{"osm_id":"node/3443816500","name":"fascino","layer":"poi","category":"cafe"},"geometry":{"type":"Point","coordinates":[126.911373,37.5491566]}},{"type":"Feature","properties":{"osm_id":"node/3443817288","name":"GS25","layer":"poi","category":"convenience"},"geometry":{"type":"Point","coordinates":[126.9114454,37.549197]}},{"type":"Feature","properties":{"osm_id":"node/3443821193","name":"양화정","layer":"poi","category":"restaurant"},"geometry":{"type":"Point","coordinates":[126.9120221,37.5494756]}},{"type":"Feature","properties":{"osm_id":"node/3447841193","name":"Kazu Izakaya","layer":"poi","category":"restaurant"},"geometry":{"type":"Point","coordinates":[126.9102343,37.5503341]}},{"type":"Feature","properties":{"osm_id":"node/3589926120","name":"","layer":"poi","category":"convenience"},"geometry":{"type":"Point","coordinates":[126.9137342,37.5492789]}},{"type":"Feature","properties":{"osm_id":"node/3589926122","name":"CU","layer":"poi","category":"convenience"},"geometry":{"type":"Point","coordinates":[126.9152403,37.5504389]}},{"type":"Feature","properties":{"osm_id":"node/3613940471","name":"Beliefcoffee roasters","layer":"poi","category":"cafe"},"geometry":{"type":"Point","coordinates":[126.91399629999998,37.552320400000006]}},{"type":"Feature","properties":{"osm_id":"node/3793800600","name":"","layer":"poi","category":"pub"},"geometry":{"type":"Point","coordinates":[126.92015629999999,37.5506057]}},{"type":"Feature","properties":{"osm_id":"node/4039364341","name":"아이야카페","layer":"poi","category":"cafe"},"geometry":{"type":"Point","coordinates":[126.9175186,37.5533978]}},{"type":"Feature","properties":{"osm_id":"node/4144737191","name":"홍일품 간장게장","layer":"poi","category":"restaurant"},"geometry":{"type":"Point","coordinates":[126.9187346,37.5480855]}},{"type":"Feature","properties":{"osm_id":"node/4144791589","name":"프로간장새우","layer":"poi","category":"restaurant"},"geometry":{"type":"Point","coordinates":[126.91893570000002,37.5480933]}},{"type":"Feature","properties":{"osm_id":"node/4175973539","name":"CU 홍대거리점","layer":"poi","category":"convenience"},"geometry":{"type":"Point","coordinates":[126.9201261,37.5484404]}},{"type":"Feature","properties":{"osm_id":"node/4175973555","name":"홍대개미","layer":"poi","category":"restaurant"},"geometry":{"type":"Point","coordinates":[126.9207781,37.548182600000004]}},{"type":"Feature","properties":{"osm_id":"node/4175973560","name":"김피라 홍대점","layer":"poi","category":"restaurant"},"geometry":{"type":"Point","coordinates":[126.9209551,37.548644]}},{"type":"Feature","properties":{"osm_id":"node/4175973561","name":"더옐로우","layer":"poi","category":"restaurant"},"geometry":{"type":"Point","coordinates":[126.9212582,37.548837500000005]}},{"type":"Feature","properties":{"osm_id":"node/4177727546","name":"하나노 오오카미","layer":"poi","category":"restaurant"},"geometry":{"type":"Point","coordinates":[126.9207918,37.548875499999994]}},{"type":"Feature","properties":{"osm_id":"node/4177727547","name":"까페 꼼마","layer":"poi","category":"cafe"},"geometry":{"type":"Point","coordinates":[126.92081330000002,37.5489882]}},{"type":"Feature","properties":{"osm_id":"node/4177727548","name":"박명수 족발의 명수","layer":"poi","category":"restaurant"},"geometry":{"type":"Point","coordinates":[126.9214564,37.5500873]}},{"type":"Feature","properties":{"osm_id":"node/4177727549","name":"소복","layer":"poi","category":"cafe"},"geometry":{"type":"Point","coordinates":[126.921274,37.550134]}},{"type":"Feature","properties":{"osm_id":"node/4177727550","name":"수봉 감자탕","layer":"poi","category":"restaurant"},"geometry":{"type":"Point","coordinates":[126.92120700000001,37.5499905]}},{"type":"Feature","properties":{"osm_id":"node/4177727551","name":"봉쥬비어","layer":"poi","category":"pub"},"geometry":{"type":"Point","coordinates":[126.9212177,37.5499735]}},{"type":"Feature","properties":{"osm_id":"node/4177727552","name":"쇼부","layer":"poi","category":"restaurant"},"geometry":{"type":"Point","coordinates":[126.921211,37.549957500000005]}},{"type":"Feature","properties":{"osm_id":"node/4177727553","name":"칠성포차","layer":"poi","category":"pub"},"geometry":{"type":"Point","coordinates":[126.9211694,37.54983210000001]}},{"type":"Feature","properties":{"osm_id":"node/4177727556","name":"마마노 베이커리","layer":"poi","category":"bakery"},"geometry":{"type":"Point","coordinates":[126.9218534,37.5499639]}},{"type":"Feature","properties":{"osm_id":"node/4202017060","name":"엔젤리너스","layer":"poi","category":"cafe"},"geometry":{"type":"Point","coordinates":[126.9186262,37.5524725]}},{"type":"Feature","properties":{"osm_id":"node/4210247597","name":"리치몬드 과자점","layer":"poi","category":"bakery"},"geometry":{"type":"Point","coordinates":[126.9202444,37.5514508]}},{"type":"Feature","properties":{"osm_id":"node/4210247598","name":"까페루치아","layer":"poi","category":"cafe"},"geometry":{"type":"Point","coordinates":[126.9199467,37.5520143]}},{"type":"Feature","properties":{"osm_id":"node/4252968589","name":"Cafe aA museum","layer":"poi","category":"cafe"},"geometry":{"type":"Point","coordinates":[126.92139180000001,37.54955029999999]}},{"type":"Feature","properties":{"osm_id":"node/4324588292","name":"돈수백","layer":"poi","category":"restaurant"},"geometry":{"type":"Point","coordinates":[126.91675619999998,37.5489303]}},{"type":"Feature","properties":{"osm_id":"node/4345968392","name":"풍월","layer":"poi","category":"restaurant"},"geometry":{"type":"Point","coordinates":[126.9208698,37.548972600000006]}},{"type":"Feature","properties":{"osm_id":"node/4345988694","name":"토끼정","layer":"poi","category":"restaurant"},"geometry":{"type":"Point","coordinates":[126.92067509999998,37.5517376]}},{"type":"Feature","properties":{"osm_id":"node/4346038189","name":"La douce","layer":"poi","category":"cafe"},"geometry":{"type":"Point","coordinates":[126.9185408,37.54947010000001]}},{"type":"Feature","properties":{"osm_id":"node/4346042490","name":"코만스","layer":"poi","category":"cafe"},"geometry":{"type":"Point","coordinates":[126.9208468,37.54998340000001]}},{"type":"Feature","properties":{"osm_id":"node/4346060290","name":"쿄베이커리","layer":"poi","category":"bakery"},"geometry":{"type":"Point","coordinates":[126.92092130000002,37.5480639]}},{"type":"Feature","properties":{"osm_id":"node/4346073592","name":"당고집","layer":"poi","category":"cafe"},"geometry":{"type":"Point","coordinates":[126.9193271,37.5472724]}},{"type":"Feature","properties":{"osm_id":"node/4346127689","name":"델문도","layer":"poi","category":"cafe"},"geometry":{"type":"Point","coordinates":[126.9208453,37.5504858]}},{"type":"Feature","properties":{"osm_id":"node/4346145390","name":"고베규카츠","layer":"poi","category":"restaurant"},"geometry":{"type":"Point","coordinates":[126.91986259999999,37.54846860000001]}},{"type":"Feature","properties":{"osm_id":"node/4346157989","name":"구구스 서양밥집","layer":"poi","category":"restaurant"},"geometry":{"type":"Point","coordinates":[126.92085140000002,37.5484541]}},{"type":"Feature","properties":{"osm_id":"node/4346218089","name":"코노미","layer":"poi","category":"restaurant"},"geometry":{"type":"Point","coordinates":[126.9205737,37.5521575]}},{"type":"Feature","properties":{"osm_id":"node/4346229789","name":"켄비멘RIKI","layer":"poi","category":"restaurant"},"geometry":{"type":"Point","coordinates":[126.92153709999998,37.5484707]}},{"type":"Feature","properties":{"osm_id":"node/4346388306","name":"컨토이너","layer":"poi","category":"cafe"},"geometry":{"type":"Point","coordinates":[126.9211939,37.54834759999999]}},{"type":"Feature","properties":{"osm_id":"node/4355543392","name":"메가MGC커피","layer":"poi","category":"cafe"},"geometry":{"type":"Point","coordinates":[126.92136069999998,37.5524598]}},{"type":"Feature","properties":{"osm_id":"node/4405962791","name":"빽다방","layer":"poi","category":"cafe"},"geometry":{"type":"Point","coordinates":[126.92136890000002,37.5518061]}},{"type":"Feature","properties":{"osm_id":"node/4406440451","name":"Navi Bar","layer":"poi","category":"cafe"},"geometry":{"type":"Point","coordinates":[126.9217039,37.5498321]}},{"type":"Feature","properties":{"osm_id":"node/4410956797","name":"","layer":"poi","category":"restaurant"},"geometry":{"type":"Point","coordinates":[126.9209452,37.55188149999999]}},{"type":"Feature","properties":{"osm_id":"node/4416285701","name":"Kiss The Tiramisu","layer":"poi","category":"restaurant"},"geometry":{"type":"Point","coordinates":[126.92143320000001,37.552220500000004]}},{"type":"Feature","properties":{"osm_id":"node/4416285798","name":"헬로 키티 카페","layer":"poi","category":"restaurant"},"geometry":{"type":"Point","coordinates":[126.92198610000001,37.55148989999999]}},{"type":"Feature","properties":{"osm_id":"node/4416291795","name":"Bau house dog cafe","layer":"poi","category":"restaurant"},"geometry":{"type":"Point","coordinates":[126.91576159999998,37.55042269999999]}},{"type":"Feature","properties":{"osm_id":"node/4498718726","name":"카페 알롱제","layer":"poi","category":"cafe"},"geometry":{"type":"Point","coordinates":[126.9068456,37.5521877]}},{"type":"Feature","properties":{"osm_id":"node/4644573932","name":"Kaeru","layer":"poi","category":"restaurant"},"geometry":{"type":"Point","coordinates":[126.91033230000001,37.5501411]}},{"type":"Feature","properties":{"osm_id":"node/4759958322","name":"세븐일레븐","layer":"poi","category":"convenience"},"geometry":{"type":"Point","coordinates":[126.91782170000002,37.55514680000001]}},{"type":"Feature","properties":{"osm_id":"node/4759958825","name":"","layer":"poi","category":"restaurant"},"geometry":{"type":"Point","coordinates":[126.9211408,37.552957199999994]}},{"type":"Feature","properties":{"osm_id":"node/4759958826","name":"","layer":"poi","category":"restaurant"},"geometry":{"type":"Point","coordinates":[126.92166390000001,37.552131700000004]}},{"type":"Feature","properties":{"osm_id":"node/4760008621","name":"","layer":"poi","category":"restaurant"},"geometry":{"type":"Point","coordinates":[126.9205968,37.55222890000001]}},{"type":"Feature","properties":{"osm_id":"node/4768865822","name":"","layer":"poi","category":"pub"},"geometry":{"type":"Point","coordinates":[126.91492710000001,37.5491463]}},{"type":"Feature","properties":{"osm_id":"node/4768867322","name":"","layer":"poi","category":"restaurant"},"geometry":{"type":"Point","coordinates":[126.92021350000002,37.5507482]}},{"type":"Feature","properties":{"osm_id":"node/4768871824","name":"","layer":"poi","category":"restaurant"},"geometry":{"type":"Point","coordinates":[126.9212317,37.55156670000001]}},{"type":"Feature","properties":{"osm_id":"node/4768886922","name":"","layer":"poi","category":"cafe"},"geometry":{"type":"Point","coordinates":[126.9170308,37.549642500000004]}},{"type":"Feature","properties":{"osm_id":"node/4768887021","name":"","layer":"poi","category":"restaurant"},"geometry":{"type":"Point","coordinates":[126.92084690000002,37.550153300000005]}},{"type":"Feature","properties":{"osm_id":"node/4768887027","name":"","layer":"poi","category":"restaurant"},"geometry":{"type":"Point","coordinates":[126.91594720000002,37.5505212]}},{"type":"Feature","properties":{"osm_id":"node/4768888321","name":"","layer":"poi","category":"restaurant"},"geometry":{"type":"Point","coordinates":[126.92136269999999,37.5504452]}},{"type":"Feature","properties":{"osm_id":"node/4768888322","name":"","layer":"poi","category":"pub"},"geometry":{"type":"Point","coordinates":[126.9191706,37.5487036]}},{"type":"Feature","properties":{"osm_id":"node/4768895022","name":"","layer":"poi","category":"restaurant"},"geometry":{"type":"Point","coordinates":[126.9166363,37.5487592]}},{"type":"Feature","properties":{"osm_id":"node/4768902721","name":"","layer":"poi","category":"restaurant"},"geometry":{"type":"Point","coordinates":[126.92124449999999,37.549130100000006]}},{"type":"Feature","properties":{"osm_id":"node/4772101121","name":"","layer":"poi","category":"restaurant"},"geometry":{"type":"Point","coordinates":[126.92187800000002,37.5500929]}},{"type":"Feature","properties":{"osm_id":"node/4780764551","name":"GS25","layer":"poi","category":"convenience"},"geometry":{"type":"Point","coordinates":[126.91510720000001,37.5454972]}},{"type":"Feature","properties":{"osm_id":"node/4783827651","name":"Gontran Cherrier","layer":"poi","category":"bakery"},"geometry":{"type":"Point","coordinates":[126.91247840000001,37.5501237]}},{"type":"Feature","properties":{"osm_id":"node/4783827663","name":"스타벅스","layer":"poi","category":"cafe"},"geometry":{"type":"Point","coordinates":[126.9126189,37.549961800000005]}},{"type":"Feature","properties":{"osm_id":"node/4783896464","name":"투썸플레이스","layer":"poi","category":"cafe"},"geometry":{"type":"Point","coordinates":[126.9114657,37.554863]}},{"type":"Feature","properties":{"osm_id":"node/4788212621","name":"","layer":"poi","category":"restaurant"},"geometry":{"type":"Point","coordinates":[126.92054689999999,37.5540612]}},{"type":"Feature","properties":{"osm_id":"node/4794723727","name":"Sonoya","layer":"poi","category":"restaurant"},"geometry":{"type":"Point","coordinates":[126.91220140000001,37.5497611]}},{"type":"Feature","properties":{"osm_id":"node/4833052122","name":"생활맥주","layer":"poi","category":"pub"},"geometry":{"type":"Point","coordinates":[126.9111407,37.550405]}},{"type":"Feature","properties":{"osm_id":"node/4851406927","name":"","layer":"poi","category":"restaurant"},"geometry":{"type":"Point","coordinates":[126.92055080000002,37.5515177]}},{"type":"Feature","properties":{"osm_id":"node/4854790125","name":"","layer":"poi","category":"restaurant"},"geometry":{"type":"Point","coordinates":[126.9190268,37.5506124]}},{"type":"Feature","properties":{"osm_id":"node/4888721122","name":"이디야커피","layer":"poi","category":"cafe"},"geometry":{"type":"Point","coordinates":[126.9215653,37.55286190000001]}},{"type":"Feature","properties":{"osm_id":"node/4894814523","name":"","layer":"poi","category":"cafe"},"geometry":{"type":"Point","coordinates":[126.92062820000001,37.552243]}},{"type":"Feature","properties":{"osm_id":"node/4945119126","name":"피오니","layer":"poi","category":"cafe"},"geometry":{"type":"Point","coordinates":[126.9211318,37.5497681]}},{"type":"Feature","properties":{"osm_id":"node/4948872731","name":"낭풍","layer":"poi","category":"restaurant"},"geometry":{"type":"Point","coordinates":[126.9207736,37.55225570000001]}},{"type":"Feature","properties":{"osm_id":"node/4968428142","name":"두리반","layer":"poi","category":"restaurant"},"geometry":{"type":"Point","coordinates":[126.92040709999999,37.553363499999996]}},{"type":"Feature","properties":{"osm_id":"node/5108877844","name":"","layer":"poi","category":"bar"},"geometry":{"type":"Point","coordinates":[126.91918450000001,37.54828740000001]}},{"type":"Feature","properties":{"osm_id":"node/5142725721","name":"","layer":"poi","category":"restaurant"},"geometry":{"type":"Point","coordinates":[126.91676360000001,37.548677000000005]}},{"type":"Feature","properties":{"osm_id":"node/5177100121","name":"야마뜨","layer":"poi","category":"cafe"},"geometry":{"type":"Point","coordinates":[126.9187044,37.54909159999999]}},{"type":"Feature","properties":{"osm_id":"node/5181158727","name":"할리스커피","layer":"poi","category":"cafe"},"geometry":{"type":"Point","coordinates":[126.91326950000001,37.5486294]}},{"type":"Feature","properties":{"osm_id":"node/5253331921","name":"아날로그가든","layer":"poi","category":"cafe"},"geometry":{"type":"Point","coordinates":[126.91805040000001,37.5553759]}},{"type":"Feature","properties":{"osm_id":"node/5309489127","name":"육쌈냉면","layer":"poi","category":"restaurant"},"geometry":{"type":"Point","coordinates":[126.9215639,37.5517565]}},{"type":"Feature","properties":{"osm_id":"node/5309489131","name":"구공탄곱창","layer":"poi","category":"restaurant"},"geometry":{"type":"Point","coordinates":[126.918491,37.548562800000006]}},{"type":"Feature","properties":{"osm_id":"node/5309489132","name":"","layer":"poi","category":"cafe"},"geometry":{"type":"Point","coordinates":[126.90930320000001,37.5493936]}},{"type":"Feature","properties":{"osm_id":"node/5338486923","name":"이마트24","layer":"poi","category":"convenience"},"geometry":{"type":"Point","coordinates":[126.90952550000002,37.5544988]}},{"type":"Feature","properties":{"osm_id":"node/5344420228","name":"unlimited beers/coctails voor 15.000","layer":"poi","category":"bar"},"geometry":{"type":"Point","coordinates":[126.9214785,37.550203700000004]}},{"type":"Feature","properties":{"osm_id":"node/5464617122","name":"","layer":"poi","category":"restaurant"},"geometry":{"type":"Point","coordinates":[126.92165100000001,37.552692199999996]}},{"type":"Feature","properties":{"osm_id":"node/5537944021","name":"","layer":"poi","category":"restaurant"},"geometry":{"type":"Point","coordinates":[126.9207549,37.5488656]}},{"type":"Feature","properties":{"osm_id":"node/5574925584","name":"나무의시간","layer":"poi","category":"cafe"},"geometry":{"type":"Point","coordinates":[126.913435,37.55220609999999]}},{"type":"Feature","properties":{"osm_id":"node/5575132315","name":"Four Basic","layer":"poi","category":"cafe"},"geometry":{"type":"Point","coordinates":[126.9110804,37.5517985]}},{"type":"Feature","properties":{"osm_id":"node/5606369206","name":"Chez Simon","layer":"poi","category":"restaurant"},"geometry":{"type":"Point","coordinates":[126.91438460000002,37.55538899999999]}},{"type":"Feature","properties":{"osm_id":"node/5613120675","name":"Le Phare","layer":"poi","category":"bar"},"geometry":{"type":"Point","coordinates":[126.91318790000001,37.54710500000001]}},{"type":"Feature","properties":{"osm_id":"node/5613120676","name":"GS25","layer":"poi","category":"convenience"},"geometry":{"type":"Point","coordinates":[126.91302410000002,37.5471477]}},{"type":"Feature","properties":{"osm_id":"node/5613120677","name":"서양미술사","layer":"poi","category":"bar"},"geometry":{"type":"Point","coordinates":[126.9132034,37.5471604]}},{"type":"Feature","properties":{"osm_id":"node/5703503221","name":"야미요밀 Vegan Bakery","layer":"poi","category":"bakery"},"geometry":{"type":"Point","coordinates":[126.9153065,37.5515126]}},{"type":"Feature","properties":{"osm_id":"node/5795786456","name":"스타벅스","layer":"poi","category":"cafe"},"geometry":{"type":"Point","coordinates":[126.91852959999999,37.5533421]}},{"type":"Feature","properties":{"osm_id":"node/5810057253","name":"","layer":"poi","category":"bar"},"geometry":{"type":"Point","coordinates":[126.9212236,37.5513852]}},{"type":"Feature","properties":{"osm_id":"node/5811481754","name":"","layer":"poi","category":"bar"},"geometry":{"type":"Point","coordinates":[126.9206094,37.5499667]}},{"type":"Feature","properties":{"osm_id":"node/5811516153","name":"","layer":"poi","category":"bar"},"geometry":{"type":"Point","coordinates":[126.9206853,37.55005059999999]}},{"type":"Feature","properties":{"osm_id":"node/5811516253","name":"","layer":"poi","category":"bar"},"geometry":{"type":"Point","coordinates":[126.92050970000001,37.5500473]}},{"type":"Feature","properties":{"osm_id":"node/5811719853","name":"","layer":"poi","category":"bar"},"geometry":{"type":"Point","coordinates":[126.92101730000002,37.550575499999994]}},{"type":"Feature","properties":{"osm_id":"node/5839354785","name":"","layer":"poi","category":"restaurant"},"geometry":{"type":"Point","coordinates":[126.9220316,37.5511841]}},{"type":"Feature","properties":{"osm_id":"node/5889574785","name":"마녀커리크림","layer":"poi","category":"restaurant"},"geometry":{"type":"Point","coordinates":[126.91954570000001,37.54849850000001]}},{"type":"Feature","properties":{"osm_id":"node/5916874391","name":"합정","layer":"poi","category":"station"},"geometry":{"type":"Point","coordinates":[126.9136561,37.5493558]}},{"type":"Feature","properties":{"osm_id":"node/6041674907","name":"망원","layer":"poi","category":"station"},"geometry":{"type":"Point","coordinates":[126.9101277,37.5560254]}},{"type":"Feature","properties":{"osm_id":"node/6276944785","name":"The Famous Burger","layer":"poi","category":"restaurant"},"geometry":{"type":"Point","coordinates":[126.9196014,37.55044850000001]}},{"type":"Feature","properties":{"osm_id":"node/6300742685","name":"안티카페 손과얼굴","layer":"poi","category":"bar"},"geometry":{"type":"Point","coordinates":[126.9150548,37.54882589999999]}},{"type":"Feature","properties":{"osm_id":"node/6341753585","name":"La bande dessinée","layer":"poi","category":"cafe"},"geometry":{"type":"Point","coordinates":[126.90953390000001,37.555635]}},{"type":"Feature","properties":{"osm_id":"node/6341759286","name":"The Raw by Twins","layer":"poi","category":"restaurant"},"geometry":{"type":"Point","coordinates":[126.9078257,37.5514005]}},{"type":"Feature","properties":{"osm_id":"node/6341780601","name":"","layer":"poi","category":"restaurant"},"geometry":{"type":"Point","coordinates":[126.916301,37.5462329]}},{"type":"Feature","properties":{"osm_id":"node/6411666019","name":"The Sullamb","layer":"poi","category":"restaurant"},"geometry":{"type":"Point","coordinates":[126.92113889999999,37.54978609999999]}},{"type":"Feature","properties":{"osm_id":"node/6411666347","name":"Tom N Toms","layer":"poi","category":"cafe"},"geometry":{"type":"Point","coordinates":[126.9213881,37.5508986]}},{"type":"Feature","properties":{"osm_id":"node/6411666348","name":"Extreme Coffee","layer":"poi","category":"cafe"},"geometry":{"type":"Point","coordinates":[126.92120340000001,37.54894360000001]}},{"type":"Feature","properties":{"osm_id":"node/6411909699","name":"","layer":"poi","category":"restaurant"},"geometry":{"type":"Point","coordinates":[126.9206567,37.55295400000001]}},{"type":"Feature","properties":{"osm_id":"node/6411910015","name":"King's Cross","layer":"poi","category":"cafe"},"geometry":{"type":"Point","coordinates":[126.92079620000001,37.5530335]}},{"type":"Feature","properties":{"osm_id":"node/6411910102","name":"Cafe Fors","layer":"poi","category":"cafe"},"geometry":{"type":"Point","coordinates":[126.92057219999998,37.5528929]}},{"type":"Feature","properties":{"osm_id":"node/6411910480","name":"The GL","layer":"poi","category":"cafe"},"geometry":{"type":"Point","coordinates":[126.9210157,37.5533745]}},{"type":"Feature","properties":{"osm_id":"node/6411910485","name":"Hog's Head","layer":"poi","category":"pub"},"geometry":{"type":"Point","coordinates":[126.9207193,37.5529945]}},{"type":"Feature","properties":{"osm_id":"node/6576024485","name":"","layer":"poi","category":"restaurant"},"geometry":{"type":"Point","coordinates":[126.9093069,37.5556727]}},{"type":"Feature","properties":{"osm_id":"node/6577830285","name":"맛있는 일본음식점 무라","layer":"poi","category":"restaurant"},"geometry":{"type":"Point","coordinates":[126.92075940000001,37.5486011]}},{"type":"Feature","properties":{"osm_id":"node/6597936285","name":"더 귀여워 애견카페","layer":"poi","category":"bar"},"geometry":{"type":"Point","coordinates":[126.92211690000002,37.5500545]}},{"type":"Feature","properties":{"osm_id":"node/6676036215","name":"Dunkin'","layer":"poi","category":"fast_food"},"geometry":{"type":"Point","coordinates":[126.91361150000002,37.5494139]}},{"type":"Feature","properties":{"osm_id":"node/6676036216","name":"스타벅스","layer":"poi","category":"cafe"},"geometry":{"type":"Point","coordinates":[126.9140273,37.55048359999999]}},{"type":"Feature","properties":{"osm_id":"node/6676036217","name":"롤링핀","layer":"poi","category":"bakery"},"geometry":{"type":"Point","coordinates":[126.913958,37.5507747]}},{"type":"Feature","properties":{"osm_id":"node/6676036220","name":"투썸플레이스","layer":"poi","category":"cafe"},"geometry":{"type":"Point","coordinates":[126.9133111,37.550504800000006]}},{"type":"Feature","properties":{"osm_id":"node/6795476288","name":"Vinyl Bar","layer":"poi","category":"bar"},"geometry":{"type":"Point","coordinates":[126.91384010000002,37.545724]}},{"type":"Feature","properties":{"osm_id":"node/6818657287","name":"이디야커피","layer":"poi","category":"cafe"},"geometry":{"type":"Point","coordinates":[126.91908610000002,37.548351000000004]}},{"type":"Feature","properties":{"osm_id":"node/6943595011","name":"세븐일레븐","layer":"poi","category":"convenience"},"geometry":{"type":"Point","coordinates":[126.9140372,37.5568714]}},{"type":"Feature","properties":{"osm_id":"node/6943595018","name":"CU","layer":"poi","category":"convenience"},"geometry":{"type":"Point","coordinates":[126.9152865,37.55578980000001]}},{"type":"Feature","properties":{"osm_id":"node/6959899287","name":"","layer":"poi","category":"restaurant"},"geometry":{"type":"Point","coordinates":[126.92026940000001,37.552224800000005]}},{"type":"Feature","properties":{"osm_id":"node/7140737785","name":"충화가정","layer":"poi","category":"restaurant"},"geometry":{"type":"Point","coordinates":[126.920974,37.5517209]}},{"type":"Feature","properties":{"osm_id":"node/7140737985","name":"돼지대학교","layer":"poi","category":"restaurant"},"geometry":{"type":"Point","coordinates":[126.9152351,37.5488098]}},{"type":"Feature","properties":{"osm_id":"node/7144560785","name":"허니돈","layer":"poi","category":"restaurant"},"geometry":{"type":"Point","coordinates":[126.9097012,37.555574400000005]}},{"type":"Feature","properties":{"osm_id":"node/7150523088","name":"1988고기불패 홍대본점","layer":"poi","category":"restaurant"},"geometry":{"type":"Point","coordinates":[126.92212659999998,37.5503428]}},{"type":"Feature","properties":{"osm_id":"node/7150523089","name":"또보겠지떡볶이 홍대본점","layer":"poi","category":"restaurant"},"geometry":{"type":"Point","coordinates":[126.92114489999999,37.5521687]}},{"type":"Feature","properties":{"osm_id":"node/7150523090","name":"","layer":"poi","category":"restaurant"},"geometry":{"type":"Point","coordinates":[126.92109800000001,37.552105]}},{"type":"Feature","properties":{"osm_id":"node/7150527886","name":"","layer":"poi","category":"restaurant"},"geometry":{"type":"Point","coordinates":[126.9209171,37.551405300000006]}},{"type":"Feature","properties":{"osm_id":"node/7150628085","name":"심슨탕","layer":"poi","category":"restaurant"},"geometry":{"type":"Point","coordinates":[126.92113559999999,37.5529815]}},{"type":"Feature","properties":{"osm_id":"node/7150628185","name":"","layer":"poi","category":"restaurant"},"geometry":{"type":"Point","coordinates":[126.9204558,37.55185130000001]}},{"type":"Feature","properties":{"osm_id":"node/7160726137","name":"lpbar","layer":"poi","category":"bar"},"geometry":{"type":"Point","coordinates":[126.9204303,37.5533547]}},{"type":"Feature","properties":{"osm_id":"node/7162173997","name":"","layer":"poi","category":"restaurant"},"geometry":{"type":"Point","coordinates":[126.9188303,37.5495045]}},{"type":"Feature","properties":{"osm_id":"node/7216270985","name":"Ganggangsullae, BBq beef, pork","layer":"poi","category":"restaurant"},"geometry":{"type":"Point","coordinates":[126.9205474,37.5523382]}},{"type":"Feature","properties":{"osm_id":"node/7217546485","name":"Ganggangsullae ,beef bbq","layer":"poi","category":"restaurant"},"geometry":{"type":"Point","coordinates":[126.92056190000001,37.5523497]}},{"type":"Feature","properties":{"osm_id":"node/7217874685","name":"Ciuri Ciuri, Italian","layer":"poi","category":"restaurant"},"geometry":{"type":"Point","coordinates":[126.92136149999999,37.5484907]}},{"type":"Feature","properties":{"osm_id":"node/7218128185","name":"Musso AUCE beef","layer":"poi","category":"restaurant"},"geometry":{"type":"Point","coordinates":[126.92206509999998,37.55094439999999]}},{"type":"Feature","properties":{"osm_id":"node/7218284685","name":"Kkot dwaeji Gallery AUCE Bbq","layer":"poi","category":"restaurant"},"geometry":{"type":"Point","coordinates":[126.92207550000002,37.5512372]}},{"type":"Feature","properties":{"osm_id":"node/7218381585","name":"Kkot Dwaeji Gallery,AUCE bbq","layer":"poi","category":"restaurant"},"geometry":{"type":"Point","coordinates":[126.92203779999998,37.5512199]}},{"type":"Feature","properties":{"osm_id":"node/7285120255","name":"스타벅스","layer":"poi","category":"cafe"},"geometry":{"type":"Point","coordinates":[126.91367159999999,37.5507928]}},{"type":"Feature","properties":{"osm_id":"node/8481984184","name":"스타벅스","layer":"poi","category":"cafe"},"geometry":{"type":"Point","coordinates":[126.9106433,37.5558081]}},{"type":"Feature","properties":{"osm_id":"node/8482489653","name":"GS25","layer":"poi","category":"convenience"},"geometry":{"type":"Point","coordinates":[126.9113151,37.5550786]}},{"type":"Feature","properties":{"osm_id":"node/8556600423","name":"마담 티라미수","layer":"poi","category":"cafe"},"geometry":{"type":"Point","coordinates":[126.9109148,37.551361]}},{"type":"Feature","properties":{"osm_id":"node/8556615017","name":"","layer":"poi","category":"restaurant"},"geometry":{"type":"Point","coordinates":[126.9114916,37.555135]}},{"type":"Feature","properties":{"osm_id":"node/10308810246","name":"매그놀리아","layer":"poi","category":"cafe"},"geometry":{"type":"Point","coordinates":[126.91938100000002,37.55196360000001]}},{"type":"Feature","properties":{"osm_id":"node/10613540059","name":"네즈","layer":"poi","category":"bar"},"geometry":{"type":"Point","coordinates":[126.9132297,37.54709660000002]}},{"type":"Feature","properties":{"osm_id":"node/10656761605","name":"신미경 홍대 닭갈비","layer":"poi","category":"restaurant"},"geometry":{"type":"Point","coordinates":[126.9218584,37.552140699999995]}},{"type":"Feature","properties":{"osm_id":"node/10657295705","name":"교촌치킨","layer":"poi","category":"fast_food"},"geometry":{"type":"Point","coordinates":[126.92012390000001,37.55360700000001]}},{"type":"Feature","properties":{"osm_id":"node/10657396305","name":"오레노라멘","layer":"poi","category":"restaurant"},"geometry":{"type":"Point","coordinates":[126.91756500000001,37.547994499999994]}},{"type":"Feature","properties":{"osm_id":"node/10669030805","name":"Spacca Napoli . Pizzeria","layer":"poi","category":"restaurant"},"geometry":{"type":"Point","coordinates":[126.915615,37.5489776]}},{"type":"Feature","properties":{"osm_id":"node/10698808655","name":"해머플레이스","layer":"poi","category":"cafe"},"geometry":{"type":"Point","coordinates":[126.91834590000002,37.54691600000001]}},{"type":"Feature","properties":{"osm_id":"node/10787211636","name":"파우스디멘션","layer":"poi","category":"cafe"},"geometry":{"type":"Point","coordinates":[126.91849080000001,37.5514383]}},{"type":"Feature","properties":{"osm_id":"node/10794747909","name":"붉은낙타","layer":"poi","category":"restaurant"},"geometry":{"type":"Point","coordinates":[126.920703,37.55131010000001]}},{"type":"Feature","properties":{"osm_id":"node/10810877535","name":"망원홈스윗홈","layer":"poi","category":"cafe"},"geometry":{"type":"Point","coordinates":[126.91241410000002,37.556158700000005]}},{"type":"Feature","properties":{"osm_id":"node/10866894779","name":"아피시온","layer":"poi","category":"bar"},"geometry":{"type":"Point","coordinates":[126.9201039,37.5519487]}},{"type":"Feature","properties":{"osm_id":"node/10882734651","name":"교집합","layer":"poi","category":"bar"},"geometry":{"type":"Point","coordinates":[126.9148493,37.548466700000006]}},{"type":"Feature","properties":{"osm_id":"node/10923630487","name":"더블유오앤","layer":"poi","category":"cafe"},"geometry":{"type":"Point","coordinates":[126.9206924,37.55193890000001]}},{"type":"Feature","properties":{"osm_id":"node/10963338888","name":"카페디디","layer":"poi","category":"cafe"},"geometry":{"type":"Point","coordinates":[126.91800030000002,37.54981560000001]}},{"type":"Feature","properties":{"osm_id":"node/11073199551","name":"장독계","layer":"poi","category":"restaurant"},"geometry":{"type":"Point","coordinates":[126.9152154,37.5494036]}},{"type":"Feature","properties":{"osm_id":"node/11111316129","name":"서교왼손","layer":"poi","category":"restaurant"},"geometry":{"type":"Point","coordinates":[126.92038739999998,37.553374299999994]}},{"type":"Feature","properties":{"osm_id":"node/11127216402","name":"원스","layer":"poi","category":"restaurant"},"geometry":{"type":"Point","coordinates":[126.9135793,37.55351999999999]}},{"type":"Feature","properties":{"osm_id":"node/11139668880","name":"미카도 스시","layer":"poi","category":"restaurant"},"geometry":{"type":"Point","coordinates":[126.9120797,37.550790899999996]}},{"type":"Feature","properties":{"osm_id":"node/11306828534","name":"청돈옥","layer":"poi","category":"restaurant"},"geometry":{"type":"Point","coordinates":[126.9195228,37.5519498]}},{"type":"Feature","properties":{"osm_id":"node/11330761976","name":"Chungdonok","layer":"poi","category":"restaurant"},"geometry":{"type":"Point","coordinates":[126.9195273,37.5519216]}},{"type":"Feature","properties":{"osm_id":"node/11370507294","name":"더기와합정","layer":"poi","category":"restaurant"},"geometry":{"type":"Point","coordinates":[126.916875,37.5495406]}},{"type":"Feature","properties":{"osm_id":"node/11425361891","name":"세상 끝의 라멘","layer":"poi","category":"restaurant"},"geometry":{"type":"Point","coordinates":[126.91522900000001,37.551536]}},{"type":"Feature","properties":{"osm_id":"node/11425361892","name":"우동카덴","layer":"poi","category":"restaurant"},"geometry":{"type":"Point","coordinates":[126.91507929999999,37.5517143]}},{"type":"Feature","properties":{"osm_id":"node/11498990737","name":"군산 아구찜","layer":"poi","category":"restaurant"},"geometry":{"type":"Point","coordinates":[126.90912739999999,37.549649]}},{"type":"Feature","properties":{"osm_id":"node/11498990738","name":"CU","layer":"poi","category":"convenience"},"geometry":{"type":"Point","coordinates":[126.90797340000002,37.55032899999999]}},{"type":"Feature","properties":{"osm_id":"node/11626620268","name":"GS25","layer":"poi","category":"convenience"},"geometry":{"type":"Point","coordinates":[126.91434869999999,37.5522267]}},{"type":"Feature","properties":{"osm_id":"node/11626628069","name":"Dogtown Pizza","layer":"poi","category":"restaurant"},"geometry":{"type":"Point","coordinates":[126.9168207,37.5487427]}},{"type":"Feature","properties":{"osm_id":"node/11739270911","name":"CU","layer":"poi","category":"convenience"},"geometry":{"type":"Point","coordinates":[126.9201132,37.55090710000001]}},{"type":"Feature","properties":{"osm_id":"node/11744981946","name":"히트커피로스터스","layer":"poi","category":"cafe"},"geometry":{"type":"Point","coordinates":[126.9183542,37.5552539]}},{"type":"Feature","properties":{"osm_id":"node/11744981948","name":"Pizza Hut","layer":"poi","category":"restaurant"},"geometry":{"type":"Point","coordinates":[126.91475,37.554628300000005]}},{"type":"Feature","properties":{"osm_id":"node/11744981949","name":"세븐일레븐","layer":"poi","category":"convenience"},"geometry":{"type":"Point","coordinates":[126.91328450000002,37.5548633]}},{"type":"Feature","properties":{"osm_id":"node/11744981950","name":"Domino's","layer":"poi","category":"fast_food"},"geometry":{"type":"Point","coordinates":[126.91207819999998,37.5545575]}},{"type":"Feature","properties":{"osm_id":"node/11744981951","name":"망원동 유동","layer":"poi","category":"restaurant"},"geometry":{"type":"Point","coordinates":[126.91118769999999,37.554208]}},{"type":"Feature","properties":{"osm_id":"node/11744981952","name":"세븐일레븐","layer":"poi","category":"convenience"},"geometry":{"type":"Point","coordinates":[126.91258750000001,37.552016300000005]}},{"type":"Feature","properties":{"osm_id":"node/11780387594","name":"CU","layer":"poi","category":"convenience"},"geometry":{"type":"Point","coordinates":[126.91543110000002,37.555083]}},{"type":"Feature","properties":{"osm_id":"node/11780387595","name":"잔치국수집","layer":"poi","category":"restaurant"},"geometry":{"type":"Point","coordinates":[126.9134583,37.5547121]}},{"type":"Feature","properties":{"osm_id":"node/11780387596","name":"세븐일레븐","layer":"poi","category":"convenience"},"geometry":{"type":"Point","coordinates":[126.90961039999999,37.5529628]}},{"type":"Feature","properties":{"osm_id":"node/11780387597","name":"TM.S","layer":"poi","category":"cafe"},"geometry":{"type":"Point","coordinates":[126.9091281,37.55169430000001]}},{"type":"Feature","properties":{"osm_id":"node/11780387598","name":"GS25","layer":"poi","category":"convenience"},"geometry":{"type":"Point","coordinates":[126.91067640000001,37.5494176]}},{"type":"Feature","properties":{"osm_id":"node/11780387599","name":"미스타 교자","layer":"poi","category":"bar"},"geometry":{"type":"Point","coordinates":[126.9099642,37.54900380000001]}},{"type":"Feature","properties":{"osm_id":"node/11829745879","name":"최강금돈까스","layer":"poi","category":"restaurant"},"geometry":{"type":"Point","coordinates":[126.91094490000002,37.54993189999999]}},{"type":"Feature","properties":{"osm_id":"node/11871303430","name":"CU","layer":"poi","category":"convenience"},"geometry":{"type":"Point","coordinates":[126.9154617,37.5501921]}},{"type":"Feature","properties":{"osm_id":"node/11871303431","name":"GS25","layer":"poi","category":"convenience"},"geometry":{"type":"Point","coordinates":[126.9149324,37.5505777]}},{"type":"Feature","properties":{"osm_id":"node/11892981472","name":"스케줄합정","layer":"poi","category":"restaurant"},"geometry":{"type":"Point","coordinates":[126.91617,37.549096500000005]}},{"type":"Feature","properties":{"osm_id":"node/11898517269","name":"밤부 베이커리&브루잉","layer":"poi","category":"cafe"},"geometry":{"type":"Point","coordinates":[126.9109559,37.5506364]}},{"type":"Feature","properties":{"osm_id":"node/11903958293","name":"GS25","layer":"poi","category":"convenience"},"geometry":{"type":"Point","coordinates":[126.9163231,37.5509759]}},{"type":"Feature","properties":{"osm_id":"node/11971214255","name":"동두천솥뚜껑삼겹살 합정점","layer":"poi","category":"restaurant"},"geometry":{"type":"Point","coordinates":[126.9163294,37.54897400000001]}},{"type":"Feature","properties":{"osm_id":"node/11974900896","name":"GS25","layer":"poi","category":"convenience"},"geometry":{"type":"Point","coordinates":[126.91212039999999,37.55628150000001]}},{"type":"Feature","properties":{"osm_id":"node/11989539302","name":"샤브인서울","layer":"poi","category":"restaurant"},"geometry":{"type":"Point","coordinates":[126.91207630000001,37.5499011]}},{"type":"Feature","properties":{"osm_id":"node/12012437104","name":"세븐일레븐","layer":"poi","category":"convenience"},"geometry":{"type":"Point","coordinates":[126.92063420000001,37.55305620000001]}},{"type":"Feature","properties":{"osm_id":"node/12012437105","name":"무대륙","layer":"poi","category":"cafe"},"geometry":{"type":"Point","coordinates":[126.91840980000002,37.54597890000001]}},{"type":"Feature","properties":{"osm_id":"node/12073332084","name":"몽로","layer":"poi","category":"restaurant"},"geometry":{"type":"Point","coordinates":[126.9166705,37.553045000000004]}},{"type":"Feature","properties":{"osm_id":"node/12073342707","name":"몽주방","layer":"poi","category":"bar"},"geometry":{"type":"Point","coordinates":[126.91915000000002,37.548710199999995]}},{"type":"Feature","properties":{"osm_id":"node/12073397317","name":"나물먹는곰","layer":"poi","category":"restaurant"},"geometry":{"type":"Point","coordinates":[126.921034,37.5514578]}},{"type":"Feature","properties":{"osm_id":"node/12073430712","name":"벌툰홍대본점","layer":"poi","category":"cafe"},"geometry":{"type":"Point","coordinates":[126.92011129999999,37.55059940000001]}},{"type":"Feature","properties":{"osm_id":"node/12073437967","name":"옹다래찜닭.디저트","layer":"poi","category":"restaurant"},"geometry":{"type":"Point","coordinates":[126.92064290000002,37.55405189999999]}},{"type":"Feature","properties":{"osm_id":"node/12073458473","name":"바인웍스테이스팅룸","layer":"poi","category":"restaurant"},"geometry":{"type":"Point","coordinates":[126.91802129999999,37.547657199999996]}},{"type":"Feature","properties":{"osm_id":"node/12074337919","name":"독타운피자","layer":"poi","category":"restaurant"},"geometry":{"type":"Point","coordinates":[126.91682720000001,37.548730400000004]}},{"type":"Feature","properties":{"osm_id":"node/12074338162","name":"충당","layer":"poi","category":"cafe"},"geometry":{"type":"Point","coordinates":[126.9109057,37.550029300000006]}},{"type":"Feature","properties":{"osm_id":"node/12074391399","name":"맹금류","layer":"poi","category":"restaurant"},"geometry":{"type":"Point","coordinates":[126.9140743,37.5457302]}},{"type":"Feature","properties":{"osm_id":"node/12074424635","name":"스타보틀 코리아","layer":"poi","category":"restaurant"},"geometry":{"type":"Point","coordinates":[126.91196560000002,37.5509127]}},{"type":"Feature","properties":{"osm_id":"node/12074471389","name":"뉴 로스팅 하우스","layer":"poi","category":"cafe"},"geometry":{"type":"Point","coordinates":[126.91886410000001,37.55466950000001]}},{"type":"Feature","properties":{"osm_id":"node/12074493270","name":"한강에스프레소 상수점","layer":"poi","category":"restaurant"},"geometry":{"type":"Point","coordinates":[126.92106270000001,37.54738590000001]}},{"type":"Feature","properties":{"osm_id":"node/12074520584","name":"익스첼","layer":"poi","category":"restaurant"},"geometry":{"type":"Point","coordinates":[126.91466130000002,37.545735]}},{"type":"Feature","properties":{"osm_id":"node/12074541284","name":"양궈푸마라탕","layer":"poi","category":"restaurant"},"geometry":{"type":"Point","coordinates":[126.92149440000001,37.552848]}},{"type":"Feature","properties":{"osm_id":"node/12074544729","name":"트릴로지(Trilogy)","layer":"poi","category":"restaurant"},"geometry":{"type":"Point","coordinates":[126.90823129999998,37.5492155]}},{"type":"Feature","properties":{"osm_id":"node/12074556238","name":"소고산제일루 Express","layer":"poi","category":"restaurant"},"geometry":{"type":"Point","coordinates":[126.921308,37.552142599999996]}},{"type":"Feature","properties":{"osm_id":"node/12074561515","name":"마라입구","layer":"poi","category":"restaurant"},"geometry":{"type":"Point","coordinates":[126.91372080000001,37.5500855]}},{"type":"Feature","properties":{"osm_id":"node/12074575586","name":"철길부산집","layer":"poi","category":"restaurant"},"geometry":{"type":"Point","coordinates":[126.9213461,37.55290209999999]}},{"type":"Feature","properties":{"osm_id":"node/12074581124","name":"23플래터","layer":"poi","category":"restaurant"},"geometry":{"type":"Point","coordinates":[126.9194246,37.5504569]}},{"type":"Feature","properties":{"osm_id":"node/12074581162","name":"빠넬로","layer":"poi","category":"restaurant"},"geometry":{"type":"Point","coordinates":[126.9189826,37.549409000000004]}},{"type":"Feature","properties":{"osm_id":"node/12074583301","name":"미분당","layer":"poi","category":"restaurant"},"geometry":{"type":"Point","coordinates":[126.91792340000002,37.5482032]}},{"type":"Feature","properties":{"osm_id":"node/12074583339","name":"BHC치킨","layer":"poi","category":"restaurant"},"geometry":{"type":"Point","coordinates":[126.92164830000002,37.54915]}},{"type":"Feature","properties":{"osm_id":"node/12074583342","name":"호박꽃","layer":"poi","category":"restaurant"},"geometry":{"type":"Point","coordinates":[126.921316,37.549249800000005]}},{"type":"Feature","properties":{"osm_id":"node/12074583405","name":"더밤","layer":"poi","category":"bar"},"geometry":{"type":"Point","coordinates":[126.9208286,37.5506781]}},{"type":"Feature","properties":{"osm_id":"node/12074583427","name":"토끼다이닝","layer":"poi","category":"restaurant"},"geometry":{"type":"Point","coordinates":[126.91785590000002,37.5484648]}},{"type":"Feature","properties":{"osm_id":"node/12074587820","name":"육전국밥 합정점","layer":"poi","category":"restaurant"},"geometry":{"type":"Point","coordinates":[126.9134319,37.5486235]}},{"type":"Feature","properties":{"osm_id":"node/12074587831","name":"후드","layer":"poi","category":"bar"},"geometry":{"type":"Point","coordinates":[126.9209842,37.55053409999999]}},{"type":"Feature","properties":{"osm_id":"node/12074587863","name":"헤이쥬","layer":"poi","category":"bar"},"geometry":{"type":"Point","coordinates":[126.9193026,37.55254849999999]}},{"type":"Feature","properties":{"osm_id":"node/12074587891","name":"피자오 홍대점","layer":"poi","category":"restaurant"},"geometry":{"type":"Point","coordinates":[126.92123729999999,37.55279470000001]}},{"type":"Feature","properties":{"osm_id":"node/12074591785","name":"넨네","layer":"poi","category":"restaurant"},"geometry":{"type":"Point","coordinates":[126.9198093,37.5504343]}},{"type":"Feature","properties":{"osm_id":"node/12074592857","name":"라밤바서울","layer":"poi","category":"restaurant"},"geometry":{"type":"Point","coordinates":[126.92147319999998,37.5500646]}},{"type":"Feature","properties":{"osm_id":"node/12074594303","name":"논베","layer":"poi","category":"restaurant"},"geometry":{"type":"Point","coordinates":[126.9108486,37.54988839999999]}},{"type":"Feature","properties":{"osm_id":"node/12074597421","name":"골목포차 홍대","layer":"poi","category":"bar"},"geometry":{"type":"Point","coordinates":[126.9218888,37.5502686]}},{"type":"Feature","properties":{"osm_id":"node/12074600475","name":"수상한베이글","layer":"poi","category":"restaurant"},"geometry":{"type":"Point","coordinates":[126.92195530000001,37.549584]}},{"type":"Feature","properties":{"osm_id":"node/12074601624","name":"슬로우야드 바베큐","layer":"poi","category":"restaurant"},"geometry":{"type":"Point","coordinates":[126.90954440000002,37.5489973]}},{"type":"Feature","properties":{"osm_id":"node/12074607051","name":"술82","layer":"poi","category":"bar"},"geometry":{"type":"Point","coordinates":[126.91711740000001,37.5498164]}},{"type":"Feature","properties":{"osm_id":"node/12074608138","name":"홍대카레츠","layer":"poi","category":"restaurant"},"geometry":{"type":"Point","coordinates":[126.9125706,37.5547823]}},{"type":"Feature","properties":{"osm_id":"node/12074608625","name":"역전할머니맥주","layer":"poi","category":"pub"},"geometry":{"type":"Point","coordinates":[126.92071910000001,37.550303500000005]}},{"type":"Feature","properties":{"osm_id":"node/12074610942","name":"도킹어라운드","layer":"poi","category":"bar"},"geometry":{"type":"Point","coordinates":[126.92084909999998,37.5509851]}},{"type":"Feature","properties":{"osm_id":"node/12074610943","name":"멕시카나","layer":"poi","category":"restaurant"},"geometry":{"type":"Point","coordinates":[126.92082299999998,37.5501562]}},{"type":"Feature","properties":{"osm_id":"node/12074616900","name":"낙경","layer":"poi","category":"restaurant"},"geometry":{"type":"Point","coordinates":[126.92038850000002,37.551524900000004]}},{"type":"Feature","properties":{"osm_id":"node/12074617109","name":"해몽 마포점","layer":"poi","category":"restaurant"},"geometry":{"type":"Point","coordinates":[126.917761,37.5487496]}},{"type":"Feature","properties":{"osm_id":"node/12074633906","name":"오늘하루","layer":"poi","category":"bar"},"geometry":{"type":"Point","coordinates":[126.920569,37.5499607]}},{"type":"Feature","properties":{"osm_id":"node/12074633914","name":"야타이쇼부","layer":"poi","category":"bar"},"geometry":{"type":"Point","coordinates":[126.9169738,37.549436400000005]}},{"type":"Feature","properties":{"osm_id":"node/12074634222","name":"라스트춘선","layer":"poi","category":"cafe"},"geometry":{"type":"Point","coordinates":[126.92059130000001,37.5503141]}},{"type":"Feature","properties":{"osm_id":"node/12074634446","name":"시시","layer":"poi","category":"restaurant"},"geometry":{"type":"Point","coordinates":[126.9123159,37.551057]}},{"type":"Feature","properties":{"osm_id":"node/12074640627","name":"베니베이크","layer":"poi","category":"cafe"},"geometry":{"type":"Point","coordinates":[126.9171382,37.5480483]}},{"type":"Feature","properties":{"osm_id":"node/12074643196","name":"더페이머스램","layer":"poi","category":"cafe"},"geometry":{"type":"Point","coordinates":[126.91123149999999,37.55613900000001]}},{"type":"Feature","properties":{"osm_id":"node/12074650886","name":"미야비","layer":"poi","category":"restaurant"},"geometry":{"type":"Point","coordinates":[126.9110558,37.5500083]}},{"type":"Feature","properties":{"osm_id":"node/12074655693","name":"옥소반 합정점","layer":"poi","category":"restaurant"},"geometry":{"type":"Point","coordinates":[126.913095,37.54747]}},{"type":"Feature","properties":{"osm_id":"node/12074659727","name":"한스시","layer":"poi","category":"restaurant"},"geometry":{"type":"Point","coordinates":[126.915017,37.5560641]}},{"type":"Feature","properties":{"osm_id":"node/12074676999","name":"써브웨이 합정역메세나폴리스점","layer":"poi","category":"restaurant"},"geometry":{"type":"Point","coordinates":[126.91386720000001,37.5509156]}},{"type":"Feature","properties":{"osm_id":"node/12074678938","name":"스튜디오포비피엠","layer":"poi","category":"bar"},"geometry":{"type":"Point","coordinates":[126.9158088,37.5460558]}},{"type":"Feature","properties":{"osm_id":"node/12074682534","name":"카페 공명","layer":"poi","category":"cafe"},"geometry":{"type":"Point","coordinates":[126.92201700000001,37.5499154]}},{"type":"Feature","properties":{"osm_id":"node/12074682561","name":"사카바주정","layer":"poi","category":"restaurant"},"geometry":{"type":"Point","coordinates":[126.9176886,37.5497068]}},{"type":"Feature","properties":{"osm_id":"node/12074685390","name":"그럼","layer":"poi","category":"restaurant"},"geometry":{"type":"Point","coordinates":[126.9117902,37.55279070000001]}},{"type":"Feature","properties":{"osm_id":"node/12074685451","name":"안티플랜","layer":"poi","category":"bar"},"geometry":{"type":"Point","coordinates":[126.9199796,37.54624350000001]}},{"type":"Feature","properties":{"osm_id":"node/12074687258","name":"백왕냉삼","layer":"poi","category":"restaurant"},"geometry":{"type":"Point","coordinates":[126.9132969,37.54804570000001]}},{"type":"Feature","properties":{"osm_id":"node/12074688283","name":"서교동의봄","layer":"poi","category":"restaurant"},"geometry":{"type":"Point","coordinates":[126.9202641,37.5494876]}},{"type":"Feature","properties":{"osm_id":"node/12074689857","name":"그늘 합정본점","layer":"poi","category":"bar"},"geometry":{"type":"Point","coordinates":[126.9170899,37.5498164]}},{"type":"Feature","properties":{"osm_id":"node/12074691520","name":"수잔네","layer":"poi","category":"restaurant"},"geometry":{"type":"Point","coordinates":[126.9145312,37.55347]}},{"type":"Feature","properties":{"osm_id":"node/12074692484","name":"타테이와","layer":"poi","category":"restaurant"},"geometry":{"type":"Point","coordinates":[126.9107647,37.550124]}},{"type":"Feature","properties":{"osm_id":"node/12074693287","name":"오소바텐","layer":"poi","category":"restaurant"},"geometry":{"type":"Point","coordinates":[126.9134812,37.556605]}},{"type":"Feature","properties":{"osm_id":"node/12074693474","name":"식선","layer":"poi","category":"restaurant"},"geometry":{"type":"Point","coordinates":[126.9141973,37.54681240000001]}},{"type":"Feature","properties":{"osm_id":"node/12074693860","name":"디스","layer":"poi","category":"bar"},"geometry":{"type":"Point","coordinates":[126.9217851,37.55062130000001]}},{"type":"Feature","properties":{"osm_id":"node/12074694031","name":"레스트아우룸","layer":"poi","category":"restaurant"},"geometry":{"type":"Point","coordinates":[126.9141551,37.5561462]}},{"type":"Feature","properties":{"osm_id":"node/12074697721","name":"성북동 왕돈까스","layer":"poi","category":"restaurant"},"geometry":{"type":"Point","coordinates":[126.9114075,37.550066099999995]}},{"type":"Feature","properties":{"osm_id":"node/12074698460","name":"화규","layer":"poi","category":"restaurant"},"geometry":{"type":"Point","coordinates":[126.91751729999999,37.5490302]}},{"type":"Feature","properties":{"osm_id":"node/12074704279","name":"오리가미클럽","layer":"poi","category":"cafe"},"geometry":{"type":"Point","coordinates":[126.90813670000001,37.5502088]}},{"type":"Feature","properties":{"osm_id":"node/12074713380","name":"파스타마스터 홍대본점","layer":"poi","category":"restaurant"},"geometry":{"type":"Point","coordinates":[126.919836,37.5500804]}},{"type":"Feature","properties":{"osm_id":"node/12074713381","name":"투썸플레이스","layer":"poi","category":"cafe"},"geometry":{"type":"Point","coordinates":[126.92176320000002,37.5524606]}},{"type":"Feature","properties":{"osm_id":"node/12074717580","name":"홀스 홍대점","layer":"poi","category":"restaurant"},"geometry":{"type":"Point","coordinates":[126.92150550000001,37.5514066]}},{"type":"Feature","properties":{"osm_id":"node/12074718705","name":"개화당","layer":"poi","category":"bar"},"geometry":{"type":"Point","coordinates":[126.92097260000001,37.5486887]}},{"type":"Feature","properties":{"osm_id":"node/12074720184","name":"따로집","layer":"poi","category":"restaurant"},"geometry":{"type":"Point","coordinates":[126.913861,37.5486983]}},{"type":"Feature","properties":{"osm_id":"node/12074723802","name":"알토커피바_ 합정","layer":"poi","category":"cafe"},"geometry":{"type":"Point","coordinates":[126.90783130000001,37.549368199999996]}},{"type":"Feature","properties":{"osm_id":"node/12074727484","name":"화류","layer":"poi","category":"restaurant"},"geometry":{"type":"Point","coordinates":[126.9139909,37.546250300000004]}},{"type":"Feature","properties":{"osm_id":"node/12074727678","name":"낀낀","layer":"poi","category":"restaurant"},"geometry":{"type":"Point","coordinates":[126.9164119,37.5487954]}},{"type":"Feature","properties":{"osm_id":"node/12074727681","name":"모에모에귱 메이드카페","layer":"poi","category":"restaurant"},"geometry":{"type":"Point","coordinates":[126.91729520000001,37.5474108]}},{"type":"Feature","properties":{"osm_id":"node/12074729219","name":"어사출또","layer":"poi","category":"restaurant"},"geometry":{"type":"Point","coordinates":[126.9152129,37.54903800000001]}},{"type":"Feature","properties":{"osm_id":"node/12074737669","name":"카페 위밋데얼","layer":"poi","category":"cafe"},"geometry":{"type":"Point","coordinates":[126.92114039999998,37.55293650000001]}},{"type":"Feature","properties":{"osm_id":"node/12074738326","name":"로타리","layer":"poi","category":"bar"},"geometry":{"type":"Point","coordinates":[126.9150617,37.54983390000001]}},{"type":"Feature","properties":{"osm_id":"node/12074738862","name":"비스트로에트르","layer":"poi","category":"restaurant"},"geometry":{"type":"Point","coordinates":[126.91017480000001,37.5491318]}},{"type":"Feature","properties":{"osm_id":"node/12074745587","name":"한식 오마카세 미지","layer":"poi","category":"restaurant"},"geometry":{"type":"Point","coordinates":[126.91857219999999,37.5494674]}},{"type":"Feature","properties":{"osm_id":"node/12074753971","name":"대빵","layer":"poi","category":"bar"},"geometry":{"type":"Point","coordinates":[126.91814250000002,37.5493666]}},{"type":"Feature","properties":{"osm_id":"node/12074758392","name":"소금과다시마","layer":"poi","category":"bar"},"geometry":{"type":"Point","coordinates":[126.9158368,37.553428600000004]}},{"type":"Feature","properties":{"osm_id":"node/12074759861","name":"카페레터","layer":"poi","category":"cafe"},"geometry":{"type":"Point","coordinates":[126.91798530000001,37.54989160000001]}},{"type":"Feature","properties":{"osm_id":"node/12074764100","name":"우피","layer":"poi","category":"restaurant"},"geometry":{"type":"Point","coordinates":[126.91716809999998,37.549382800000004]}},{"type":"Feature","properties":{"osm_id":"node/12074764348","name":"노사이드","layer":"poi","category":"restaurant"},"geometry":{"type":"Point","coordinates":[126.9204811,37.5490707]}},{"type":"Feature","properties":{"osm_id":"node/12074765511","name":"플레이어스 홀덤펍","layer":"poi","category":"bar"},"geometry":{"type":"Point","coordinates":[126.9205675,37.5503438]}},{"type":"Feature","properties":{"osm_id":"node/12074770459","name":"명품수제숯불갈비","layer":"poi","category":"restaurant"},"geometry":{"type":"Point","coordinates":[126.91174549999998,37.55297360000001]}},{"type":"Feature","properties":{"osm_id":"node/12074773740","name":"양도둑","layer":"poi","category":"restaurant"},"geometry":{"type":"Point","coordinates":[126.91498270000001,37.54941910000001]}},{"type":"Feature","properties":{"osm_id":"node/12074773752","name":"텐무스봉봉 나베모토야","layer":"poi","category":"restaurant"},"geometry":{"type":"Point","coordinates":[126.9184501,37.5478173]}},{"type":"Feature","properties":{"osm_id":"node/12074773938","name":"게릴라방앗간","layer":"poi","category":"cafe"},"geometry":{"type":"Point","coordinates":[126.90866230000002,37.553142900000005]}},{"type":"Feature","properties":{"osm_id":"node/12074779308","name":"부니기","layer":"poi","category":"cafe"},"geometry":{"type":"Point","coordinates":[126.9066266,37.5509407]}},{"type":"Feature","properties":{"osm_id":"node/12074780647","name":"후타츠","layer":"poi","category":"restaurant"},"geometry":{"type":"Point","coordinates":[126.9217684,37.549398700000005]}},{"type":"Feature","properties":{"osm_id":"node/12074785196","name":"두놈포차","layer":"poi","category":"restaurant"},"geometry":{"type":"Point","coordinates":[126.9151665,37.5490376]}},{"type":"Feature","properties":{"osm_id":"node/12074791329","name":"단디","layer":"poi","category":"restaurant"},"geometry":{"type":"Point","coordinates":[126.9196599,37.549834]}},{"type":"Feature","properties":{"osm_id":"node/12074793787","name":"멕시코식당(Mexicodiner)","layer":"poi","category":"restaurant"},"geometry":{"type":"Point","coordinates":[126.91459560000001,37.5474995]}},{"type":"Feature","properties":{"osm_id":"node/12074799171","name":"꼬꼬로 치킨","layer":"poi","category":"bar"},"geometry":{"type":"Point","coordinates":[126.92175150000001,37.55138490000001]}},{"type":"Feature","properties":{"osm_id":"node/12074805600","name":"히게쯔라","layer":"poi","category":"bar"},"geometry":{"type":"Point","coordinates":[126.91037999999999,37.5505799]}},{"type":"Feature","properties":{"osm_id":"node/12086583389","name":"MUU 한우다이닝","layer":"poi","category":"restaurant"},"geometry":{"type":"Point","coordinates":[126.91864080000002,37.54927190000001]}},{"type":"Feature","properties":{"osm_id":"node/12123435455","name":"짚불돈","layer":"poi","category":"restaurant"},"geometry":{"type":"Point","coordinates":[126.91819560000002,37.5483886]}},{"type":"Feature","properties":{"osm_id":"node/12169205773","name":"카페 산티아고","layer":"poi","category":"cafe"},"geometry":{"type":"Point","coordinates":[126.9152735,37.5514951]}},{"type":"Feature","properties":{"osm_id":"node/12172303605","name":"세븐일레븐","layer":"poi","category":"convenience"},"geometry":{"type":"Point","coordinates":[126.9122628,37.54911649999998]}},{"type":"Feature","properties":{"osm_id":"node/12172303606","name":"CU","layer":"poi","category":"convenience"},"geometry":{"type":"Point","coordinates":[126.9158993,37.5520286]}},{"type":"Feature","properties":{"osm_id":"node/12172303607","name":"La Salsa Rica Mexicana","layer":"poi","category":"restaurant"},"geometry":{"type":"Point","coordinates":[126.91558759999998,37.5521802]}},{"type":"Feature","properties":{"osm_id":"node/12192187657","name":"오로촌","layer":"poi","category":"restaurant"},"geometry":{"type":"Point","coordinates":[126.91439889999998,37.554535800000004]}},{"type":"Feature","properties":{"osm_id":"node/12192195619","name":"Only One 갈비","layer":"poi","category":"restaurant"},"geometry":{"type":"Point","coordinates":[126.914308,37.552385199999996]}},{"type":"Feature","properties":{"osm_id":"node/12192195654","name":"유주얼 하우스","layer":"poi","category":"restaurant"},"geometry":{"type":"Point","coordinates":[126.9141378,37.552733200000006]}},{"type":"Feature","properties":{"osm_id":"node/12192196002","name":"핏제리아오","layer":"poi","category":"restaurant"},"geometry":{"type":"Point","coordinates":[126.9158015,37.55224029999999]}},{"type":"Feature","properties":{"osm_id":"node/12192196186","name":"연가정","layer":"poi","category":"restaurant"},"geometry":{"type":"Point","coordinates":[126.9179482,37.5543329]}},{"type":"Feature","properties":{"osm_id":"node/12192196188","name":"르메드(REMEDE)","layer":"poi","category":"restaurant"},"geometry":{"type":"Point","coordinates":[126.90717430000001,37.5515731]}},{"type":"Feature","properties":{"osm_id":"node/12192196410","name":"윤멘","layer":"poi","category":"restaurant"},"geometry":{"type":"Point","coordinates":[126.90814609999998,37.550180700000006]}},{"type":"Feature","properties":{"osm_id":"node/12192196422","name":"음오아에","layer":"poi","category":"restaurant"},"geometry":{"type":"Point","coordinates":[126.9198944,37.548627700000004]}},{"type":"Feature","properties":{"osm_id":"node/12192196802","name":"칼국수수제비가","layer":"poi","category":"restaurant"},"geometry":{"type":"Point","coordinates":[126.91690289999998,37.552654999999994]}},{"type":"Feature","properties":{"osm_id":"node/12192197018","name":"타마시이","layer":"poi","category":"restaurant"},"geometry":{"type":"Point","coordinates":[126.91392870000001,37.55269330000001]}},{"type":"Feature","properties":{"osm_id":"node/12192197401","name":"돌겟닭(돌GET닭)","layer":"poi","category":"restaurant"},"geometry":{"type":"Point","coordinates":[126.91733540000001,37.55107449999999]}},{"type":"Feature","properties":{"osm_id":"node/12192197617","name":"어반플랜트","layer":"poi","category":"cafe"},"geometry":{"type":"Point","coordinates":[126.917158,37.547901]}},{"type":"Feature","properties":{"osm_id":"node/12192197715","name":"대청마루","layer":"poi","category":"restaurant"},"geometry":{"type":"Point","coordinates":[126.9183492,37.5555552]}},{"type":"Feature","properties":{"osm_id":"node/12192197959","name":"합정구락부","layer":"poi","category":"restaurant"},"geometry":{"type":"Point","coordinates":[126.9159366,37.552420100000006]}},{"type":"Feature","properties":{"osm_id":"node/12192198155","name":"서래옥","layer":"poi","category":"restaurant"},"geometry":{"type":"Point","coordinates":[126.913051,37.5521167]}},{"type":"Feature","properties":{"osm_id":"node/12192198366","name":"디스코플래닛","layer":"poi","category":"cafe"},"geometry":{"type":"Point","coordinates":[126.91847529999998,37.55469380000001]}},{"type":"Feature","properties":{"osm_id":"node/12192198491","name":"미카야","layer":"poi","category":"cafe"},"geometry":{"type":"Point","coordinates":[126.91821450000002,37.5555154]}},{"type":"Feature","properties":{"osm_id":"node/12192198722","name":"커피다","layer":"poi","category":"cafe"},"geometry":{"type":"Point","coordinates":[126.9136327,37.5522424]}},{"type":"Feature","properties":{"osm_id":"node/12192198947","name":"버섯마루","layer":"poi","category":"restaurant"},"geometry":{"type":"Point","coordinates":[126.9119457,37.5524742]}},{"type":"Feature","properties":{"osm_id":"node/12192199122","name":"옥동식","layer":"poi","category":"restaurant"},"geometry":{"type":"Point","coordinates":[126.9144882,37.5526529]}},{"type":"Feature","properties":{"osm_id":"node/12192199453","name":"이가네호프","layer":"poi","category":"bar"},"geometry":{"type":"Point","coordinates":[126.9125063,37.5524101]}},{"type":"Feature","properties":{"osm_id":"node/12192199503","name":"라뽀즈(LaPause)","layer":"poi","category":"cafe"},"geometry":{"type":"Point","coordinates":[126.9174181,37.5485669]}},{"type":"Feature","properties":{"osm_id":"node/12192199586","name":"멕시카고 타코23","layer":"poi","category":"restaurant"},"geometry":{"type":"Point","coordinates":[126.921413,37.54860200000001]}},{"type":"Feature","properties":{"osm_id":"node/12192199629","name":"하동우렁추어탕","layer":"poi","category":"restaurant"},"geometry":{"type":"Point","coordinates":[126.91193959999998,37.5527938]}},{"type":"Feature","properties":{"osm_id":"node/12192199878","name":"김밥 가미","layer":"poi","category":"fast_food"},"geometry":{"type":"Point","coordinates":[126.9144287,37.5521826]}},{"type":"Feature","properties":{"osm_id":"node/12192199910","name":"서교가든숯불갈비","layer":"poi","category":"restaurant"},"geometry":{"type":"Point","coordinates":[126.9157526,37.5546645]}},{"type":"Feature","properties":{"osm_id":"node/12192199916","name":"깊이","layer":"poi","category":"restaurant"},"geometry":{"type":"Point","coordinates":[126.91347800000001,37.55221209999999]}},{"type":"Feature","properties":{"osm_id":"node/12192199950","name":"복숭아꽃","layer":"poi","category":"restaurant"},"geometry":{"type":"Point","coordinates":[126.9198444,37.5486081]}},{"type":"Feature","properties":{"osm_id":"node/12192199963","name":"로디 비스트로바;이츠야(ITSUYA)","layer":"poi","category":"restaurant"},"geometry":{"type":"Point","coordinates":[126.9199656,37.5487653]}},{"type":"Feature","properties":{"osm_id":"node/12192200000","name":"포리포리텐진","layer":"poi","category":"restaurant"},"geometry":{"type":"Point","coordinates":[126.9198659,37.5486368]}},{"type":"Feature","properties":{"osm_id":"node/12192200120","name":"서오릉피자 서교점","layer":"poi","category":"restaurant"},"geometry":{"type":"Point","coordinates":[126.91680479999998,37.554204600000006]}},{"type":"Feature","properties":{"osm_id":"node/12192200795","name":"굽네치킨","layer":"poi","category":"restaurant"},"geometry":{"type":"Point","coordinates":[126.9167476,37.5541337]}},{"type":"Feature","properties":{"osm_id":"node/12192201011","name":"루즈 도어(LOOSE DOOR)","layer":"poi","category":"restaurant"},"geometry":{"type":"Point","coordinates":[126.9070394,37.5519629]}},{"type":"Feature","properties":{"osm_id":"node/12192201095","name":"멘야준","layer":"poi","category":"restaurant"},"geometry":{"type":"Point","coordinates":[126.9163882,37.5549046]}},{"type":"Feature","properties":{"osm_id":"node/12192201332","name":"멘야하나비 합정점","layer":"poi","category":"restaurant"},"geometry":{"type":"Point","coordinates":[126.91684370000002,37.5525014]}},{"type":"Feature","properties":{"osm_id":"node/12192201336","name":"바다회사랑","layer":"poi","category":"restaurant"},"geometry":{"type":"Point","coordinates":[126.91779000000001,37.5555192]}},{"type":"Feature","properties":{"osm_id":"node/12192202177","name":"야끼니꾸소량","layer":"poi","category":"restaurant"},"geometry":{"type":"Point","coordinates":[126.9075194,37.5510021]}},{"type":"Feature","properties":{"osm_id":"node/12192202238","name":"오므상칼칼데스","layer":"poi","category":"restaurant"},"geometry":{"type":"Point","coordinates":[126.91435170000001,37.5541069]}},{"type":"Feature","properties":{"osm_id":"node/12192202248","name":"사막의섬","layer":"poi","category":"restaurant"},"geometry":{"type":"Point","coordinates":[126.9141617,37.55318330000001]}},{"type":"Feature","properties":{"osm_id":"node/12192202365","name":"타키","layer":"poi","category":"restaurant"},"geometry":{"type":"Point","coordinates":[126.91660549999999,37.5485151]}},{"type":"Feature","properties":{"osm_id":"node/12192202894","name":"콩포트","layer":"poi","category":"restaurant"},"geometry":{"type":"Point","coordinates":[126.91797440000002,37.5545661]}},{"type":"Feature","properties":{"osm_id":"node/12192203093","name":"Roots Izakaya","layer":"poi","category":"restaurant"},"geometry":{"type":"Point","coordinates":[126.91736370000001,37.55393970000001]}},{"type":"Feature","properties":{"osm_id":"node/12265808142","name":"Cafe Santiago","layer":"poi","category":"cafe"},"geometry":{"type":"Point","coordinates":[126.9155394,37.551417400000005]}},{"type":"Feature","properties":{"osm_id":"node/12324862787","name":"GS25","layer":"poi","category":"convenience"},"geometry":{"type":"Point","coordinates":[126.9173725,37.55102300000001]}},{"type":"Feature","properties":{"osm_id":"node/12473073317","name":"포도앤커피","layer":"poi","category":"cafe"},"geometry":{"type":"Point","coordinates":[126.9089718,37.5497879]}},{"type":"Feature","properties":{"osm_id":"node/12473107745","name":"메가MGC커피","layer":"poi","category":"cafe"},"geometry":{"type":"Point","coordinates":[126.91191589999998,37.5526036]}},{"type":"Feature","properties":{"osm_id":"node/12473107746","name":"CU","layer":"poi","category":"convenience"},"geometry":{"type":"Point","coordinates":[126.91376870000002,37.5532349]}},{"type":"Feature","properties":{"osm_id":"node/12473107747","name":"GS25","layer":"poi","category":"convenience"},"geometry":{"type":"Point","coordinates":[126.9175004,37.55396869999999]}},{"type":"Feature","properties":{"osm_id":"node/12606377835","name":"서교닭매운탕","layer":"poi","category":"restaurant"},"geometry":{"type":"Point","coordinates":[126.91773959999999,37.5504264]}},{"type":"Feature","properties":{"osm_id":"node/12702447921","name":"브릭베이글","layer":"poi","category":"bakery"},"geometry":{"type":"Point","coordinates":[126.9071318,37.55295820000001]}},{"type":"Feature","properties":{"osm_id":"node/12854968371","name":"리밀커피","layer":"poi","category":"cafe"},"geometry":{"type":"Point","coordinates":[126.9187234,37.5545846]}},{"type":"Feature","properties":{"osm_id":"node/12896441348","name":"I'm so","layer":"poi","category":"restaurant"},"geometry":{"type":"Point","coordinates":[126.9198814,37.5486089]}},{"type":"Feature","properties":{"osm_id":"node/12969741384","name":"Cyberpunk Cocktail Bar","layer":"poi","category":"bar"},"geometry":{"type":"Point","coordinates":[126.91834380000002,37.55202950000001]}},{"type":"Feature","properties":{"osm_id":"node/13015500451","name":"파스텔커피웍스","layer":"poi","category":"cafe"},"geometry":{"type":"Point","coordinates":[126.91265240000001,37.5462734]}},{"type":"Feature","properties":{"osm_id":"node/13015500452","name":"GS25","layer":"poi","category":"convenience"},"geometry":{"type":"Point","coordinates":[126.9124677,37.54582820000001]}},{"type":"Feature","properties":{"osm_id":"node/13027995435","name":"동주","layer":"poi","category":"bar"},"geometry":{"type":"Point","coordinates":[126.91943070000002,37.5496898]}},{"type":"Feature","properties":{"osm_id":"node/13103516468","name":"Akiya Ramen","layer":"poi","category":"restaurant"},"geometry":{"type":"Point","coordinates":[126.9153303,37.545753]}},{"type":"Feature","properties":{"osm_id":"node/13253502588","name":"Horno 오르노합정점","layer":"poi","category":"restaurant"},"geometry":{"type":"Point","coordinates":[126.9116997,37.5508548]}},{"type":"Feature","properties":{"osm_id":"node/13439734301","name":"Compile","layer":"poi","category":"cafe"},"geometry":{"type":"Point","coordinates":[126.9163644,37.554025900000006]}},{"type":"Feature","properties":{"osm_id":"node/13472886701","name":"Anthracite","layer":"poi","category":"cafe"},"geometry":{"type":"Point","coordinates":[126.9116829,37.5554946]}},{"type":"Feature","properties":{"osm_id":"node/13481071701","name":"Wayne's Bagels Hongdae","layer":"poi","category":"restaurant"},"geometry":{"type":"Point","coordinates":[126.92041370000001,37.553399199999994]}},{"type":"Feature","properties":{"osm_id":"node/13505863206","name":"BLACKBEAR DOUGHNUTS","layer":"poi","category":"cafe"},"geometry":{"type":"Point","coordinates":[126.91163290000001,37.55616870000001]}},{"type":"Feature","properties":{"osm_id":"node/13513652801","name":"BLACK RUMOR","layer":"poi","category":"restaurant"},"geometry":{"type":"Point","coordinates":[126.91981100000001,37.54826210000001]}},{"type":"Feature","properties":{"osm_id":"node/13513726101","name":"","layer":"poi","category":"restaurant"},"geometry":{"type":"Point","coordinates":[126.92185449999998,37.54927760000001]}},{"type":"Feature","properties":{"osm_id":"node/13531406101","name":"Identity Coffee Lab","layer":"poi","category":"cafe"},"geometry":{"type":"Point","coordinates":[126.9175078,37.555352400000004]}},{"type":"Feature","properties":{"osm_id":"node/13911612576","name":"세븐일레븐 홍대본점","layer":"poi","category":"convenience"},"geometry":{"type":"Point","coordinates":[126.921296,37.550105]}},{"type":"Feature","properties":{"osm_id":"node/13911612595","name":"세븐일레븐 당인동점","layer":"poi","category":"convenience"},"geometry":{"type":"Point","coordinates":[126.919932,37.5475]}},{"type":"Feature","properties":{"osm_id":"node/13911615074","name":"CU 서교3호점","layer":"poi","category":"convenience"},"geometry":{"type":"Point","coordinates":[126.919335,37.552518]}},{"type":"Feature","properties":{"osm_id":"node/13911615077","name":"CU 마포제일점","layer":"poi","category":"convenience"},"geometry":{"type":"Point","coordinates":[126.910702,37.556005000000006]}},{"type":"Feature","properties":{"osm_id":"node/13911615082","name":"CU 망원센터","layer":"poi","category":"convenience"},"geometry":{"type":"Point","coordinates":[126.90771,37.554061]}},{"type":"Feature","properties":{"osm_id":"node/13911615085","name":"GS25 합정프리미엄점","layer":"poi","category":"convenience"},"geometry":{"type":"Point","coordinates":[126.915214,37.549008]}},{"type":"Feature","properties":{"osm_id":"node/13911615098","name":"GS25 홍대솔내길","layer":"poi","category":"convenience"},"geometry":{"type":"Point","coordinates":[126.91987000000002,37.550189]}},{"type":"Feature","properties":{"osm_id":"node/13911615128","name":"GS25 합정유니버스점","layer":"poi","category":"convenience"},"geometry":{"type":"Point","coordinates":[126.91790999999999,37.547803]}},{"type":"Feature","properties":{"osm_id":"node/13911615130","name":"GS25 마포한강점","layer":"poi","category":"convenience"},"geometry":{"type":"Point","coordinates":[126.911649,37.551008]}},{"type":"Feature","properties":{"osm_id":"node/13911615133","name":"GS25 망원나래길","layer":"poi","category":"convenience"},"geometry":{"type":"Point","coordinates":[126.91016000000002,37.554783]}},{"type":"Feature","properties":{"osm_id":"node/13911615134","name":"이마트24 합정당인점","layer":"poi","category":"convenience"},"geometry":{"type":"Point","coordinates":[126.91867900000001,37.546656]}},{"type":"Feature","properties":{"osm_id":"node/13911615135","name":"이마트24 서교점","layer":"poi","category":"convenience"},"geometry":{"type":"Point","coordinates":[126.91371800000002,37.553973]}},{"type":"Feature","properties":{"osm_id":"node/13911615137","name":"GS25 서교라움점","layer":"poi","category":"convenience"},"geometry":{"type":"Point","coordinates":[126.916308,37.553723]}},{"type":"Feature","properties":{"osm_id":"node/13911615152","name":"CU 마포한강푸르지오점","layer":"poi","category":"convenience"},"geometry":{"type":"Point","coordinates":[126.912061,37.550050000000006]}},{"type":"Feature","properties":{"osm_id":"node/13911615165","name":"GS25 홍대레드로드점","layer":"poi","category":"convenience"},"geometry":{"type":"Point","coordinates":[126.920598,37.54946400000001]}},{"type":"Feature","properties":{"osm_id":"node/13911615169","name":"GS25 합정아지트","layer":"poi","category":"convenience"},"geometry":{"type":"Point","coordinates":[126.91722599999999,37.549753]}},{"type":"Feature","properties":{"osm_id":"node/13911615180","name":"GS25 합정태양점","layer":"poi","category":"convenience"},"geometry":{"type":"Point","coordinates":[126.918001,37.548706]}},{"type":"Feature","properties":{"osm_id":"node/13911615181","name":"세븐일레븐 서교2호점","layer":"poi","category":"convenience"},"geometry":{"type":"Point","coordinates":[126.918978,37.54855800000001]}},{"type":"Feature","properties":{"osm_id":"node/13946946645","name":"목동만복순대국","layer":"poi","category":"restaurant"},"geometry":{"type":"Point","coordinates":[126.91982270000001,37.5482364]}},{"type":"Feature","properties":{"osm_id":"node/13946946652","name":"식당 오리온","layer":"poi","category":"restaurant"},"geometry":{"type":"Point","coordinates":[126.91407509999999,37.556231499999996]}},{"type":"Feature","properties":{"osm_id":"node/13946946656","name":"대목 합정본점","layer":"poi","category":"restaurant"},"geometry":{"type":"Point","coordinates":[126.917202,37.5489246]}},{"type":"Feature","properties":{"osm_id":"node/13946946657","name":"쉘터","layer":"poi","category":"restaurant"},"geometry":{"type":"Point","coordinates":[126.9189552,37.5493903]}},{"type":"Feature","properties":{"osm_id":"node/13946946665","name":"정해네","layer":"poi","category":"restaurant"},"geometry":{"type":"Point","coordinates":[126.90993780000001,37.5502588]}},{"type":"Feature","properties":{"osm_id":"node/13946946668","name":"진저 베이크샵","layer":"poi","category":"restaurant"},"geometry":{"type":"Point","coordinates":[126.9073786,37.5519308]}},{"type":"Feature","properties":{"osm_id":"node/13946946672","name":"오일부츠(Oil Boots)","layer":"poi","category":"restaurant"},"geometry":{"type":"Point","coordinates":[126.9211213,37.54755029999999]}},{"type":"Feature","properties":{"osm_id":"node/13946946676","name":"야키토리 이유(いゆ)","layer":"poi","category":"restaurant"},"geometry":{"type":"Point","coordinates":[126.92073350000001,37.551421800000014]}},{"type":"Feature","properties":{"osm_id":"node/13946946680","name":"나비도 꽃이었다","layer":"poi","category":"restaurant"},"geometry":{"type":"Point","coordinates":[126.92179269999998,37.5497882]}},{"type":"Feature","properties":{"osm_id":"node/13946946681","name":"숙성소곱창간장게장 무한곱게","layer":"poi","category":"restaurant"},"geometry":{"type":"Point","coordinates":[126.92090219999999,37.55331449999999]}},{"type":"Feature","properties":{"osm_id":"node/13946946691","name":"볼드","layer":"poi","category":"restaurant"},"geometry":{"type":"Point","coordinates":[126.9111883,37.5496804]}},{"type":"Feature","properties":{"osm_id":"node/13946946695","name":"아마(홍대점)","layer":"poi","category":"restaurant"},"geometry":{"type":"Point","coordinates":[126.9202659,37.553505599999994]}},{"type":"Feature","properties":{"osm_id":"node/13946946696","name":"텐신","layer":"poi","category":"restaurant"},"geometry":{"type":"Point","coordinates":[126.9112265,37.55056859999999]}},{"type":"Feature","properties":{"osm_id":"node/13946946700","name":"스미비부타동 합정점","layer":"poi","category":"restaurant"},"geometry":{"type":"Point","coordinates":[126.9171757,37.5479971]}},{"type":"Feature","properties":{"osm_id":"node/13946952810","name":"야키토리 오우미","layer":"poi","category":"restaurant"},"geometry":{"type":"Point","coordinates":[126.910858,37.5498977]}},{"type":"Feature","properties":{"osm_id":"node/13946952812","name":"광주의맛","layer":"poi","category":"restaurant"},"geometry":{"type":"Point","coordinates":[126.9211755,37.5490099]}},{"type":"Feature","properties":{"osm_id":"node/13946952815","name":"카츠업 망원점","layer":"poi","category":"restaurant"},"geometry":{"type":"Point","coordinates":[126.9110639,37.5546544]}},{"type":"Feature","properties":{"osm_id":"node/13946952822","name":"3일한우국밥","layer":"poi","category":"restaurant"},"geometry":{"type":"Point","coordinates":[126.92039930000001,37.55392489999999]}},{"type":"Feature","properties":{"osm_id":"node/13946952824","name":"세이코우","layer":"poi","category":"restaurant"},"geometry":{"type":"Point","coordinates":[126.91808189999999,37.5488515]}},{"type":"Feature","properties":{"osm_id":"node/13946952837","name":"잡을손","layer":"poi","category":"restaurant"},"geometry":{"type":"Point","coordinates":[126.91255910000001,37.5547937]}},{"type":"Feature","properties":{"osm_id":"node/13946952839","name":"신김치생삼겹살2호","layer":"poi","category":"restaurant"},"geometry":{"type":"Point","coordinates":[126.9145058,37.54952219999999]}},{"type":"Feature","properties":{"osm_id":"node/13946952843","name":"형제한우곱창","layer":"poi","category":"restaurant"},"geometry":{"type":"Point","coordinates":[126.9110784,37.55000390000001]}},{"type":"Feature","properties":{"osm_id":"node/13946952852","name":"제주정원","layer":"poi","category":"restaurant"},"geometry":{"type":"Point","coordinates":[126.9162774,37.5555005]}},{"type":"Feature","properties":{"osm_id":"node/13946952853","name":"동꾼","layer":"poi","category":"restaurant"},"geometry":{"type":"Point","coordinates":[126.91886229999999,37.5546699]}},{"type":"Feature","properties":{"osm_id":"node/13946952859","name":"몽그로페페","layer":"poi","category":"restaurant"},"geometry":{"type":"Point","coordinates":[126.91409789999999,37.5566613]}},{"type":"Feature","properties":{"osm_id":"node/13946952866","name":"쏘비(SOBEE)","layer":"poi","category":"restaurant"},"geometry":{"type":"Point","coordinates":[126.9212962,37.55010500000001]}},{"type":"Feature","properties":{"osm_id":"node/13946952873","name":"정직화벌집삼겹 홍대점","layer":"poi","category":"restaurant"},"geometry":{"type":"Point","coordinates":[126.91997200000002,37.5494439]}},{"type":"Feature","properties":{"osm_id":"node/13946952874","name":"합정 미삼","layer":"poi","category":"restaurant"},"geometry":{"type":"Point","coordinates":[126.909247,37.5492497]}},{"type":"Feature","properties":{"osm_id":"node/13946952884","name":"다돈 앤 씨엘 D","layer":"poi","category":"restaurant"},"geometry":{"type":"Point","coordinates":[126.9184627,37.547669500000005]}},{"type":"Feature","properties":{"osm_id":"node/13946952899","name":"몽마르뜨언덕","layer":"poi","category":"restaurant"},"geometry":{"type":"Point","coordinates":[126.915762,37.553263099999995]}},{"type":"Feature","properties":{"osm_id":"node/13946952900","name":"뚜또 페르 뚜띠","layer":"poi","category":"restaurant"},"geometry":{"type":"Point","coordinates":[126.91813470000001,37.5556676]}},{"type":"Feature","properties":{"osm_id":"node/13946952904","name":"헤이쥬(HeyJoo)","layer":"poi","category":"restaurant"},"geometry":{"type":"Point","coordinates":[126.91933489999998,37.55251810000001]}},{"type":"Feature","properties":{"osm_id":"node/13946952908","name":"더라온키친서울","layer":"poi","category":"restaurant"},"geometry":{"type":"Point","coordinates":[126.9104848,37.55297360000001]}},{"type":"Feature","properties":{"osm_id":"node/13946952912","name":"이집트경양식 홍대직영점","layer":"poi","category":"restaurant"},"geometry":{"type":"Point","coordinates":[126.92123489999999,37.5519494]}},{"type":"Feature","properties":{"osm_id":"node/13946952913","name":"원조감자탕 일미집 홍대점","layer":"poi","category":"restaurant"},"geometry":{"type":"Point","coordinates":[126.91799949999998,37.5556085]}},{"type":"Feature","properties":{"osm_id":"node/13946952919","name":"금강산","layer":"poi","category":"restaurant"},"geometry":{"type":"Point","coordinates":[126.9132202,37.5479953]}},{"type":"Feature","properties":{"osm_id":"node/13946952921","name":"솔내한옥집","layer":"poi","category":"restaurant"},"geometry":{"type":"Point","coordinates":[126.9168829,37.54946300000001]}},{"type":"Feature","properties":{"osm_id":"node/13946952922","name":"저녁놀","layer":"poi","category":"restaurant"},"geometry":{"type":"Point","coordinates":[126.9185471,37.54859820000001]}},{"type":"Feature","properties":{"osm_id":"node/13946952937","name":"불막열삼 합정점","layer":"poi","category":"restaurant"},"geometry":{"type":"Point","coordinates":[126.9180791,37.549387300000014]}},{"type":"Feature","properties":{"osm_id":"node/13946952941","name":"힙하디","layer":"poi","category":"restaurant"},"geometry":{"type":"Point","coordinates":[126.91958449999998,37.5484764]}},{"type":"Feature","properties":{"osm_id":"node/13946952942","name":"코스미카","layer":"poi","category":"restaurant"},"geometry":{"type":"Point","coordinates":[126.9125653,37.5525472]}},{"type":"Feature","properties":{"osm_id":"node/13946952947","name":"마포가든","layer":"poi","category":"restaurant"},"geometry":{"type":"Point","coordinates":[126.9096408,37.550029200000004]}},{"type":"Feature","properties":{"osm_id":"node/13946952948","name":"섭식당","layer":"poi","category":"restaurant"},"geometry":{"type":"Point","coordinates":[126.91181880000002,37.54934840000001]}},{"type":"Feature","properties":{"osm_id":"node/13946952950","name":"가원 망원본점","layer":"poi","category":"restaurant"},"geometry":{"type":"Point","coordinates":[126.91086930000002,37.55486179999999]}},{"type":"Feature","properties":{"osm_id":"node/13946952954","name":"한창희천하일면 망원점","layer":"poi","category":"restaurant"},"geometry":{"type":"Point","coordinates":[126.90820770000002,37.554879500000006]}},{"type":"Feature","properties":{"osm_id":"node/13946952955","name":"덕이손만두","layer":"poi","category":"restaurant"},"geometry":{"type":"Point","coordinates":[126.90988550000002,37.5490685]}},{"type":"Feature","properties":{"osm_id":"node/13946952957","name":"닭선생","layer":"poi","category":"restaurant"},"geometry":{"type":"Point","coordinates":[126.9187868,37.5518922]}},{"type":"Feature","properties":{"osm_id":"node/13946952961","name":"둥둥막창구이","layer":"poi","category":"restaurant"},"geometry":{"type":"Point","coordinates":[126.9112597,37.5502658]}},{"type":"Feature","properties":{"osm_id":"node/13946952980","name":"풍윤","layer":"poi","category":"restaurant"},"geometry":{"type":"Point","coordinates":[126.91334760000001,37.552184700000005]}},{"type":"Feature","properties":{"osm_id":"node/13946952985","name":"태양집","layer":"poi","category":"restaurant"},"geometry":{"type":"Point","coordinates":[126.9072203,37.5513207]}},{"type":"Feature","properties":{"osm_id":"node/13946952995","name":"지호한방삼계탕","layer":"poi","category":"restaurant"},"geometry":{"type":"Point","coordinates":[126.9120799,37.5521966]}},{"type":"Feature","properties":{"osm_id":"node/13946952998","name":"김덕후의곱창조홍대2호점","layer":"poi","category":"restaurant"},"geometry":{"type":"Point","coordinates":[126.9213571,37.5528878]}},{"type":"Feature","properties":{"osm_id":"node/13946953001","name":"몽림","layer":"poi","category":"restaurant"},"geometry":{"type":"Point","coordinates":[126.9105535,37.5488438]}},{"type":"Feature","properties":{"osm_id":"node/13946953005","name":"오티디 서울 (OTD SEOUL)","layer":"poi","category":"restaurant"},"geometry":{"type":"Point","coordinates":[126.9155015,37.54606369999999]}},{"type":"Feature","properties":{"osm_id":"node/13946953006","name":"콰이찬 홍대점","layer":"poi","category":"restaurant"},"geometry":{"type":"Point","coordinates":[126.9192639,37.5553936]}},{"type":"Feature","properties":{"osm_id":"node/13946953016","name":"원 앤 오운(WON&OWN)","layer":"poi","category":"restaurant"},"geometry":{"type":"Point","coordinates":[126.92045060000001,37.5490658]}},{"type":"Feature","properties":{"osm_id":"node/13946953018","name":"안목가돈","layer":"poi","category":"restaurant"},"geometry":{"type":"Point","coordinates":[126.9152264,37.549408099999994]}},{"type":"Feature","properties":{"osm_id":"node/13946953021","name":"봉산정육 홍대본점","layer":"poi","category":"restaurant"},"geometry":{"type":"Point","coordinates":[126.92114660000001,37.55293129999999]}},{"type":"Feature","properties":{"osm_id":"node/13946953024","name":"동윤돼지덮밥","layer":"poi","category":"restaurant"},"geometry":{"type":"Point","coordinates":[126.9158649,37.5542263]}},{"type":"Feature","properties":{"osm_id":"node/13946953026","name":"오차야","layer":"poi","category":"restaurant"},"geometry":{"type":"Point","coordinates":[126.9208624,37.5484494]}},{"type":"Feature","properties":{"osm_id":"node/13946953027","name":"홍대 부대찌개","layer":"poi","category":"restaurant"},"geometry":{"type":"Point","coordinates":[126.921022,37.5533893]}},{"type":"Feature","properties":{"osm_id":"node/13946953035","name":"이문어세상","layer":"poi","category":"restaurant"},"geometry":{"type":"Point","coordinates":[126.9196452,37.55466080000001]}},{"type":"Feature","properties":{"osm_id":"node/13946953040","name":"한소끔 가정식손만두","layer":"poi","category":"restaurant"},"geometry":{"type":"Point","coordinates":[126.9171402,37.5538413]}},{"type":"Feature","properties":{"osm_id":"node/13946953047","name":"멘도 무카우","layer":"poi","category":"restaurant"},"geometry":{"type":"Point","coordinates":[126.9181471,37.5536527]}},{"type":"Feature","properties":{"osm_id":"node/13946953067","name":"홍어한마리","layer":"poi","category":"restaurant"},"geometry":{"type":"Point","coordinates":[126.9126117,37.5542761]}},{"type":"Feature","properties":{"osm_id":"node/13946953088","name":"타키(TAKI)","layer":"poi","category":"restaurant"},"geometry":{"type":"Point","coordinates":[126.9165852,37.548505]}},{"type":"Feature","properties":{"osm_id":"node/13946953091","name":"망원덕클","layer":"poi","category":"restaurant"},"geometry":{"type":"Point","coordinates":[126.91007009999998,37.554908200000014]}},{"type":"Feature","properties":{"osm_id":"node/13946953092","name":"남북통일","layer":"poi","category":"restaurant"},"geometry":{"type":"Point","coordinates":[126.9179536,37.55381]}},{"type":"Feature","properties":{"osm_id":"node/13946953097","name":"북촌손만두 홍대로데오점","layer":"poi","category":"restaurant"},"geometry":{"type":"Point","coordinates":[126.9209873,37.55030779999999]}},{"type":"Feature","properties":{"osm_id":"node/13946953100","name":"깃시리","layer":"poi","category":"restaurant"},"geometry":{"type":"Point","coordinates":[126.90756160000001,37.54979329999998]}},{"type":"Feature","properties":{"osm_id":"node/13946953102","name":"독막집","layer":"poi","category":"restaurant"},"geometry":{"type":"Point","coordinates":[126.91430790000001,37.5490199]}},{"type":"Feature","properties":{"osm_id":"node/13946953104","name":"감성화로 우메인 합정점","layer":"poi","category":"restaurant"},"geometry":{"type":"Point","coordinates":[126.9134992,37.55659200000001]}},{"type":"Feature","properties":{"osm_id":"node/13946953106","name":"염 돈","layer":"poi","category":"restaurant"},"geometry":{"type":"Point","coordinates":[126.91602100000001,37.5462971]}},{"type":"Feature","properties":{"osm_id":"node/13946953107","name":"라베니스","layer":"poi","category":"restaurant"},"geometry":{"type":"Point","coordinates":[126.91362360000001,37.5473015]}},{"type":"Feature","properties":{"osm_id":"node/13946953115","name":"합정광안리 숙성횟집 본점","layer":"poi","category":"restaurant"},"geometry":{"type":"Point","coordinates":[126.9175924,37.54983430000001]}},{"type":"Feature","properties":{"osm_id":"node/13946953118","name":"장수멸치국수","layer":"poi","category":"restaurant"},"geometry":{"type":"Point","coordinates":[126.91248580000001,37.55290529999999]}},{"type":"Feature","properties":{"osm_id":"node/13946953124","name":"탐라육해 합정점","layer":"poi","category":"restaurant"},"geometry":{"type":"Point","coordinates":[126.9205003,37.5500578]}},{"type":"Feature","properties":{"osm_id":"node/13946953125","name":"우엔(UYEN)","layer":"poi","category":"restaurant"},"geometry":{"type":"Point","coordinates":[126.91449240000001,37.5477947]}},{"type":"Feature","properties":{"osm_id":"node/13946953127","name":"서교동 진향","layer":"poi","category":"restaurant"},"geometry":{"type":"Point","coordinates":[126.9183151,37.55370980000001]}},{"type":"Feature","properties":{"osm_id":"node/13946953134","name":"멕시코다이너","layer":"poi","category":"restaurant"},"geometry":{"type":"Point","coordinates":[126.91595089999998,37.54602140000001]}},{"type":"Feature","properties":{"osm_id":"node/13946953135","name":"김&강 컴퍼니","layer":"poi","category":"restaurant"},"geometry":{"type":"Point","coordinates":[126.92174520000002,37.549378399999995]}},{"type":"Feature","properties":{"osm_id":"node/13946953148","name":"옹기골바베큐","layer":"poi","category":"restaurant"},"geometry":{"type":"Point","coordinates":[126.9126811,37.5494632]}},{"type":"Feature","properties":{"osm_id":"node/13946953149","name":"김밥천국 합정점","layer":"poi","category":"restaurant"},"geometry":{"type":"Point","coordinates":[126.91390370000002,37.5486353]}},{"type":"Feature","properties":{"osm_id":"node/13946953150","name":"상수한주막","layer":"poi","category":"restaurant"},"geometry":{"type":"Point","coordinates":[126.92126909999999,37.547647600000005]}},{"type":"Feature","properties":{"osm_id":"node/13946953157","name":"얼쑤","layer":"poi","category":"restaurant"},"geometry":{"type":"Point","coordinates":[126.9068855,37.55287150000001]}},{"type":"Feature","properties":{"osm_id":"node/13946953159","name":"몽주막","layer":"poi","category":"restaurant"},"geometry":{"type":"Point","coordinates":[126.91984150000002,37.5488331]}},{"type":"Feature","properties":{"osm_id":"node/13946953165","name":"아우룸(Aurum)","layer":"poi","category":"restaurant"},"geometry":{"type":"Point","coordinates":[126.9141463,37.5561191]}},{"type":"Feature","properties":{"osm_id":"node/13946953167","name":"참숯불풍천장어","layer":"poi","category":"restaurant"},"geometry":{"type":"Point","coordinates":[126.90940040000001,37.54910240000001]}},{"type":"Feature","properties":{"osm_id":"node/13946953177","name":"폴폴식당","layer":"poi","category":"restaurant"},"geometry":{"type":"Point","coordinates":[126.91727850000001,37.5473817]}},