{"type":"FeatureCollection","name":"localtwin-hongdae","metadata":{"source":"OpenStreetMap via Overpass API","source_url":"https://www.openstreetmap.org/","license":"ODbL 1.0","attribution":"© OpenStreetMap contributors","retrieved_at":"2026-07-10T19:33:14+00:00","center":[126.9238,37.5562],"radius_meters":720,"feature_count":5848,"clip_crs":"EPSG:5179"},"features":[{"type":"Feature","properties":{"osm_id":"node/1585369995","name":"Cafe Grand","layer":"poi","category":"cafe"},"geometry":{"type":"Point","coordinates":[126.92323840000002,37.560395799999995]}},{"type":"Feature","properties":{"osm_id":"node/1891008553","name":"Popeyes","layer":"poi","category":"fast_food"},"geometry":{"type":"Point","coordinates":[126.9210391,37.55521770000001]}},{"type":"Feature","properties":{"osm_id":"node/1891008554","name":"Beluca's Table","layer":"poi","category":"restaurant"},"geometry":{"type":"Point","coordinates":[126.92492660000002,37.557350099999994]}},{"type":"Feature","properties":{"osm_id":"node/1891008555","name":"Snow Mounteen","layer":"poi","category":"cafe"},"geometry":{"type":"Point","coordinates":[126.9248139,37.5572672]}},{"type":"Feature","properties":{"osm_id":"node/1923611730","name":"vent","layer":"poi","category":"pub"},"geometry":{"type":"Point","coordinates":[126.9231788,37.55495410000001]}},{"type":"Feature","properties":{"osm_id":"node/1931784450","name":"Ministop","layer":"poi","category":"convenience"},"geometry":{"type":"Point","coordinates":[126.9172516,37.5567383]}},{"type":"Feature","properties":{"osm_id":"node/2245510892","name":"경복궁","layer":"poi","category":"restaurant"},"geometry":{"type":"Point","coordinates":[126.91840650000002,37.55777760000001]}},{"type":"Feature","properties":{"osm_id":"node/2370757918","name":"이마트24","layer":"poi","category":"convenience"},"geometry":{"type":"Point","coordinates":[126.92040980000002,37.5535711]}},{"type":"Feature","properties":{"osm_id":"node/2370757920","name":"GS25","layer":"poi","category":"convenience"},"geometry":{"type":"Point","coordinates":[126.92320879999998,37.5618752]}},{"type":"Feature","properties":{"osm_id":"node/2637912677","name":"교동집","layer":"poi","category":"restaurant"},"geometry":{"type":"Point","coordinates":[126.9236259,37.55856150000001]}},{"type":"Feature","properties":{"osm_id":"node/2689460036","name":"With Coffee","layer":"poi","category":"restaurant"},"geometry":{"type":"Point","coordinates":[126.9254923,37.556783899999985]}},{"type":"Feature","properties":{"osm_id":"node/3033929928","name":"스타벅스","layer":"poi","category":"cafe"},"geometry":{"type":"Point","coordinates":[126.9236986,37.5573227]}},{"type":"Feature","properties":{"osm_id":"node/3033929929","name":"","layer":"poi","category":"cafe"},"geometry":{"type":"Point","coordinates":[126.9238912,37.557498700000004]}},{"type":"Feature","properties":{"osm_id":"node/3033931361","name":"코나빈스","layer":"poi","category":"cafe"},"geometry":{"type":"Point","coordinates":[126.9209126,37.555071500000004]}},{"type":"Feature","properties":{"osm_id":"node/3033931390","name":"백년토종삼계탕","layer":"poi","category":"restaurant"},"geometry":{"type":"Point","coordinates":[126.9201808,37.5538547]}},{"type":"Feature","properties":{"osm_id":"node/3033931431","name":"커피와사람들","layer":"poi","category":"cafe"},"geometry":{"type":"Point","coordinates":[126.9196256,37.554643000000006]}},{"type":"Feature","properties":{"osm_id":"node/3033945607","name":"김앤김 대게전문점","layer":"poi","category":"restaurant"},"geometry":{"type":"Point","coordinates":[126.91868100000002,37.55276049999999]}},{"type":"Feature","properties":{"osm_id":"node/3034284948","name":"CU","layer":"poi","category":"convenience"},"geometry":{"type":"Point","coordinates":[126.92518290000001,37.5582865]}},{"type":"Feature","properties":{"osm_id":"node/3137894129","name":"Sushi Kimpura","layer":"poi","category":"restaurant"},"geometry":{"type":"Point","coordinates":[126.91647800000001,37.5539548]}},{"type":"Feature","properties":{"osm_id":"node/3217879464","name":"턴","layer":"poi","category":"bar"},"geometry":{"type":"Point","coordinates":[126.9232365,37.558573]}},{"type":"Feature","properties":{"osm_id":"node/3404932004","name":"","layer":"poi","category":"subway_entrance"},"geometry":{"type":"Point","coordinates":[126.92530230000001,37.55851210000001]}},{"type":"Feature","properties":{"osm_id":"node/3404932005","name":"","layer":"poi","category":"subway_entrance"},"geometry":{"type":"Point","coordinates":[126.92595930000002,37.5580814]}},{"type":"Feature","properties":{"osm_id":"node/3404932006","name":"","layer":"poi","category":"subway_entrance"},"geometry":{"type":"Point","coordinates":[126.92698900000002,37.5576965]}},{"type":"Feature","properties":{"osm_id":"node/3404932007","name":"","layer":"poi","category":"subway_entrance"},"geometry":{"type":"Point","coordinates":[126.9273771,37.55697430000001]}},{"type":"Feature","properties":{"osm_id":"node/3404932008","name":"","layer":"poi","category":"subway_entrance"},"geometry":{"type":"Point","coordinates":[126.9287032,37.5566222]}},{"type":"Feature","properties":{"osm_id":"node/3404932009","name":"","layer":"poi","category":"subway_entrance"},"geometry":{"type":"Point","coordinates":[126.9238879,37.5571558]}},{"type":"Feature","properties":{"osm_id":"node/3404932010","name":"","layer":"poi","category":"subway_entrance"},"geometry":{"type":"Point","coordinates":[126.9241233,37.5568887]}},{"type":"Feature","properties":{"osm_id":"node/3404932011","name":"","layer":"poi","category":"subway_entrance"},"geometry":{"type":"Point","coordinates":[126.9229218,37.5560397]}},{"type":"Feature","properties":{"osm_id":"node/3404932012","name":"","layer":"poi","category":"subway_entrance"},"geometry":{"type":"Point","coordinates":[126.9226779,37.55627679999999]}},{"type":"Feature","properties":{"osm_id":"node/3599759346","name":"levain","layer":"poi","category":"cafe"},"geometry":{"type":"Point","coordinates":[126.9243037,37.5521405]}},{"type":"Feature","properties":{"osm_id":"node/3793800600","name":"","layer":"poi","category":"pub"},"geometry":{"type":"Point","coordinates":[126.92015629999999,37.5506057]}},{"type":"Feature","properties":{"osm_id":"node/3871627629","name":"Jack's Bean","layer":"poi","category":"fast_food"},"geometry":{"type":"Point","coordinates":[126.92931579999998,37.555182699999996]}},{"type":"Feature","properties":{"osm_id":"node/3924988550","name":"고양이다락방","layer":"poi","category":"cafe"},"geometry":{"type":"Point","coordinates":[126.92288790000002,37.555443800000006]}},{"type":"Feature","properties":{"osm_id":"node/3949311381","name":"콩불","layer":"poi","category":"restaurant"},"geometry":{"type":"Point","coordinates":[126.9233504,37.55507480000001]}},{"type":"Feature","properties":{"osm_id":"node/4039364341","name":"아이야카페","layer":"poi","category":"cafe"},"geometry":{"type":"Point","coordinates":[126.9175186,37.5533978]}},{"type":"Feature","properties":{"osm_id":"node/4072678282","name":"JASE","layer":"poi","category":"bar"},"geometry":{"type":"Point","coordinates":[126.92285470000002,37.5517894]}},{"type":"Feature","properties":{"osm_id":"node/4174097242","name":"롯데리아","layer":"poi","category":"fast_food"},"geometry":{"type":"Point","coordinates":[126.9238747,37.55298009999999]}},{"type":"Feature","properties":{"osm_id":"node/4174097244","name":"GS25","layer":"poi","category":"convenience"},"geometry":{"type":"Point","coordinates":[126.9238627,37.5527196]}},{"type":"Feature","properties":{"osm_id":"node/4174097245","name":"홍익수제비","layer":"poi","category":"restaurant"},"geometry":{"type":"Point","coordinates":[126.9238264,37.552709]}},{"type":"Feature","properties":{"osm_id":"node/4174097246","name":"이삭토스트","layer":"poi","category":"fast_food"},"geometry":{"type":"Point","coordinates":[126.92397260000001,37.55276959999999]}},{"type":"Feature","properties":{"osm_id":"node/4174097249","name":"티스빈","layer":"poi","category":"cafe"},"geometry":{"type":"Point","coordinates":[126.92375270000001,37.5531204]}},{"type":"Feature","properties":{"osm_id":"node/4174097250","name":"커피빈 홍대정문앞점","layer":"poi","category":"cafe"},"geometry":{"type":"Point","coordinates":[126.9235314,37.553278899999995]}},{"type":"Feature","properties":{"osm_id":"node/4174097253","name":"청해루","layer":"poi","category":"restaurant"},"geometry":{"type":"Point","coordinates":[126.92341609999998,37.5533597]}},{"type":"Feature","properties":{"osm_id":"node/4174097261","name":"향미식당","layer":"poi","category":"restaurant"},"geometry":{"type":"Point","coordinates":[126.923341,37.55292910000001]}},{"type":"Feature","properties":{"osm_id":"node/4174097263","name":"오리페코","layer":"poi","category":"cafe"},"geometry":{"type":"Point","coordinates":[126.9229386,37.5536488]}},{"type":"Feature","properties":{"osm_id":"node/4174097266","name":"커피랩 익스프레스","layer":"poi","category":"cafe"},"geometry":{"type":"Point","coordinates":[126.92291179999998,37.553810500000004]}},{"type":"Feature","properties":{"osm_id":"node/4174097269","name":"피자헛","layer":"poi","category":"fast_food"},"geometry":{"type":"Point","coordinates":[126.9225511,37.554091099999994]}},{"type":"Feature","properties":{"osm_id":"node/4174097274","name":"빅다방 홍대점","layer":"poi","category":"cafe"},"geometry":{"type":"Point","coordinates":[126.92336780000001,37.554310199999996]}},{"type":"Feature","properties":{"osm_id":"node/4174097275","name":"육쌈냉면 홍대2호점","layer":"poi","category":"restaurant"},"geometry":{"type":"Point","coordinates":[126.92347910000001,37.5544154]}},{"type":"Feature","properties":{"osm_id":"node/4175408563","name":"공차","layer":"poi","category":"cafe"},"geometry":{"type":"Point","coordinates":[126.92312799999999,37.5548482]}},{"type":"Feature","properties":{"osm_id":"node/4175408564","name":"미쓰족발","layer":"poi","category":"restaurant"},"geometry":{"type":"Point","coordinates":[126.92380580000001,37.55569860000001]}},{"type":"Feature","properties":{"osm_id":"node/4175408566","name":"치킨뱅이","layer":"poi","category":"restaurant"},"geometry":{"type":"Point","coordinates":[126.9240359,37.55587700000001]}},{"type":"Feature","properties":{"osm_id":"node/4175408567","name":"CU","layer":"poi","category":"convenience"},"geometry":{"type":"Point","coordinates":[126.9248909,37.5563127]}},{"type":"Feature","properties":{"osm_id":"node/4175408570","name":"까페플라넷","layer":"poi","category":"cafe"},"geometry":{"type":"Point","coordinates":[126.9248158,37.5562957]}},{"type":"Feature","properties":{"osm_id":"node/4175426162","name":"헬로헬로쑬","layer":"poi","category":"pub"},"geometry":{"type":"Point","coordinates":[126.9259896,37.555914599999994]}},{"type":"Feature","properties":{"osm_id":"node/4175426163","name":"청","layer":"poi","category":"pub"},"geometry":{"type":"Point","coordinates":[126.9260942,37.5560518]}},{"type":"Feature","properties":{"osm_id":"node/4175426164","name":"홍대곱창집","layer":"poi","category":"restaurant"},"geometry":{"type":"Point","coordinates":[126.9258944,37.5558019]}},{"type":"Feature","properties":{"osm_id":"node/4175426165","name":"새마을식당","layer":"poi","category":"restaurant"},"geometry":{"type":"Point","coordinates":[126.9258106,37.5562492]}},{"type":"Feature","properties":{"osm_id":"node/4175426168","name":"우리닭갈비","layer":"poi","category":"restaurant"},"geometry":{"type":"Point","coordinates":[126.9253774,37.5559866]}},{"type":"Feature","properties":{"osm_id":"node/4175454689","name":"커피빈","layer":"poi","category":"cafe"},"geometry":{"type":"Point","coordinates":[126.92207439999999,37.553409800000004]}},{"type":"Feature","properties":{"osm_id":"node/4175454690","name":"오설록티하우스","layer":"poi","category":"cafe"},"geometry":{"type":"Point","coordinates":[126.9218933,37.5528729]}},{"type":"Feature","properties":{"osm_id":"node/4175454697","name":"르생텍스 세컨드테이블","layer":"poi","category":"restaurant"},"geometry":{"type":"Point","coordinates":[126.9227262,37.55277619999999]}},{"type":"Feature","properties":{"osm_id":"node/4175454699","name":"설빙","layer":"poi","category":"cafe"},"geometry":{"type":"Point","coordinates":[126.9229434,37.5524668]}},{"type":"Feature","properties":{"osm_id":"node/4175454700","name":"로스꼬꼬","layer":"poi","category":"restaurant"},"geometry":{"type":"Point","coordinates":[126.92297020000001,37.552475300000005]}},{"type":"Feature","properties":{"osm_id":"node/4177514560","name":"","layer":"poi","category":"bakery"},"geometry":{"type":"Point","coordinates":[126.92461880000002,37.5531015]}},{"type":"Feature","properties":{"osm_id":"node/4177514561","name":"Bread & fruit","layer":"poi","category":"bakery"},"geometry":{"type":"Point","coordinates":[126.92119380000001,37.5577303]}},{"type":"Feature","properties":{"osm_id":"node/4177515365","name":"","layer":"poi","category":"restaurant"},"geometry":{"type":"Point","coordinates":[126.9222635,37.559015099999996]}},{"type":"Feature","properties":{"osm_id":"node/4177727548","name":"박명수 족발의 명수","layer":"poi","category":"restaurant"},"geometry":{"type":"Point","coordinates":[126.9214564,37.5500873]}},{"type":"Feature","properties":{"osm_id":"node/4177727549","name":"소복","layer":"poi","category":"cafe"},"geometry":{"type":"Point","coordinates":[126.921274,37.550134]}},{"type":"Feature","properties":{"osm_id":"node/4177727556","name":"마마노 베이커리","layer":"poi","category":"bakery"},"geometry":{"type":"Point","coordinates":[126.9218534,37.5499639]}},{"type":"Feature","properties":{"osm_id":"node/4177998638","name":"블뤼테","layer":"poi","category":"cafe"},"geometry":{"type":"Point","coordinates":[126.9236904,37.5500862]}},{"type":"Feature","properties":{"osm_id":"node/4181423902","name":"Deux Copains","layer":"poi","category":"cafe"},"geometry":{"type":"Point","coordinates":[126.92182950000002,37.559368299999996]}},{"type":"Feature","properties":{"osm_id":"node/4185389889","name":"GS25","layer":"poi","category":"convenience"},"geometry":{"type":"Point","coordinates":[126.92780620000002,37.5585629]}},{"type":"Feature","properties":{"osm_id":"node/4185390151","name":"Sopoong","layer":"poi","category":"restaurant"},"geometry":{"type":"Point","coordinates":[126.9231713,37.5585435]}},{"type":"Feature","properties":{"osm_id":"node/4187233933","name":"","layer":"poi","category":"restaurant"},"geometry":{"type":"Point","coordinates":[126.92358920000001,37.5603715]}},{"type":"Feature","properties":{"osm_id":"node/4202017060","name":"엔젤리너스","layer":"poi","category":"cafe"},"geometry":{"type":"Point","coordinates":[126.9186262,37.5524725]}},{"type":"Feature","properties":{"osm_id":"node/4208097115","name":"마포곱창타운","layer":"poi","category":"restaurant"},"geometry":{"type":"Point","coordinates":[126.92249140000001,37.55910370000001]}},{"type":"Feature","properties":{"osm_id":"node/4210247597","name":"리치몬드 과자점","layer":"poi","category":"bakery"},"geometry":{"type":"Point","coordinates":[126.9202444,37.5514508]}},{"type":"Feature","properties":{"osm_id":"node/4210247598","name":"까페루치아","layer":"poi","category":"cafe"},"geometry":{"type":"Point","coordinates":[126.9199467,37.5520143]}},{"type":"Feature","properties":{"osm_id":"node/4210292070","name":"스타벅스","layer":"poi","category":"cafe"},"geometry":{"type":"Point","coordinates":[126.923303,37.5519243]}},{"type":"Feature","properties":{"osm_id":"node/4214820190","name":"Burger B","layer":"poi","category":"restaurant"},"geometry":{"type":"Point","coordinates":[126.92279769999999,37.5511898]}},{"type":"Feature","properties":{"osm_id":"node/4249740489","name":"Suzie Q, LP bar","layer":"poi","category":"bar"},"geometry":{"type":"Point","coordinates":[126.92260750000001,37.54998489999999]}},{"type":"Feature","properties":{"osm_id":"node/4264006890","name":"Table A Cat Café","layer":"poi","category":"cafe"},"geometry":{"type":"Point","coordinates":[126.93110720000001,37.554759999999995]}},{"type":"Feature","properties":{"osm_id":"node/4311591490","name":"Churro 101","layer":"poi","category":"fast_food"},"geometry":{"type":"Point","coordinates":[126.92430520000002,37.5557791]}},{"type":"Feature","properties":{"osm_id":"node/4315862894","name":"Thanks Nature Café","layer":"poi","category":"cafe"},"geometry":{"type":"Point","coordinates":[126.92381980000002,37.553505699999995]}},{"type":"Feature","properties":{"osm_id":"node/4316710589","name":"아오이토리","layer":"poi","category":"bakery"},"geometry":{"type":"Point","coordinates":[126.92947920000002,37.554693099999994]}},{"type":"Feature","properties":{"osm_id":"node/4324593291","name":"돈수백","layer":"poi","category":"restaurant"},"geometry":{"type":"Point","coordinates":[126.92444809999999,37.5563933]}},{"type":"Feature","properties":{"osm_id":"node/4324762691","name":"麻浦海鷗 烤肉店","layer":"poi","category":"restaurant"},"geometry":{"type":"Point","coordinates":[126.92214360000001,37.554067499999995]}},{"type":"Feature","properties":{"osm_id":"node/4345988694","name":"토끼정","layer":"poi","category":"restaurant"},"geometry":{"type":"Point","coordinates":[126.92067509999998,37.5517376]}},{"type":"Feature","properties":{"osm_id":"node/4346127689","name":"델문도","layer":"poi","category":"cafe"},"geometry":{"type":"Point","coordinates":[126.9208453,37.5504858]}},{"type":"Feature","properties":{"osm_id":"node/4346218089","name":"코노미","layer":"poi","category":"restaurant"},"geometry":{"type":"Point","coordinates":[126.9205737,37.5521575]}},{"type":"Feature","properties":{"osm_id":"node/4346409692","name":"멀티플러스","layer":"poi","category":"cafe"},"geometry":{"type":"Point","coordinates":[126.9216233,37.5541629]}},{"type":"Feature","properties":{"osm_id":"node/4347537696","name":"식빵몬스터","layer":"poi","category":"bakery"},"geometry":{"type":"Point","coordinates":[126.928804,37.5551624]}},{"type":"Feature","properties":{"osm_id":"node/4349560391","name":"부탄츄","layer":"poi","category":"restaurant"},"geometry":{"type":"Point","coordinates":[126.9267147,37.5564268]}},{"type":"Feature","properties":{"osm_id":"node/4355543392","name":"메가MGC커피","layer":"poi","category":"cafe"},"geometry":{"type":"Point","coordinates":[126.92136069999998,37.5524598]}},{"type":"Feature","properties":{"osm_id":"node/4365279593","name":"진만두","layer":"poi","category":"restaurant"},"geometry":{"type":"Point","coordinates":[126.92925000000001,37.55519279999999]}},{"type":"Feature","properties":{"osm_id":"node/4365293494","name":"모에모에","layer":"poi","category":"cafe"},"geometry":{"type":"Point","coordinates":[126.92823500000002,37.5543968]}},{"type":"Feature","properties":{"osm_id":"node/4405962791","name":"빽다방","layer":"poi","category":"cafe"},"geometry":{"type":"Point","coordinates":[126.92136890000002,37.5518061]}},{"type":"Feature","properties":{"osm_id":"node/4406440490","name":"Goodtime 24","layer":"poi","category":"convenience"},"geometry":{"type":"Point","coordinates":[126.9231267,37.55247870000001]}},{"type":"Feature","properties":{"osm_id":"node/4406440491","name":"세븐일레븐","layer":"poi","category":"convenience"},"geometry":{"type":"Point","coordinates":[126.92290690000002,37.5502422]}},{"type":"Feature","properties":{"osm_id":"node/4410956797","name":"","layer":"poi","category":"restaurant"},"geometry":{"type":"Point","coordinates":[126.9209452,37.55188149999999]}},{"type":"Feature","properties":{"osm_id":"node/4416271206","name":"봉추찜닭","layer":"poi","category":"restaurant"},"geometry":{"type":"Point","coordinates":[126.923662,37.550984099999994]}},{"type":"Feature","properties":{"osm_id":"node/4416275200","name":"The Beastro","layer":"poi","category":"restaurant"},"geometry":{"type":"Point","coordinates":[126.9234686,37.5526411]}},{"type":"Feature","properties":{"osm_id":"node/4416285699","name":"신미경홍대닭갈비","layer":"poi","category":"restaurant"},"geometry":{"type":"Point","coordinates":[126.92159939999999,37.5530981]}},{"type":"Feature","properties":{"osm_id":"node/4416285700","name":"교촌치킨","layer":"poi","category":"fast_food"},"geometry":{"type":"Point","coordinates":[126.92290600000001,37.551898400000006]}},{"type":"Feature","properties":{"osm_id":"node/4416285701","name":"Kiss The Tiramisu","layer":"poi","category":"restaurant"},"geometry":{"type":"Point","coordinates":[126.92143320000001,37.552220500000004]}},{"type":"Feature","properties":{"osm_id":"node/4416285798","name":"헬로 키티 카페","layer":"poi","category":"restaurant"},"geometry":{"type":"Point","coordinates":[126.92198610000001,37.55148989999999]}},{"type":"Feature","properties":{"osm_id":"node/4427867831","name":"","layer":"poi","category":"convenience"},"geometry":{"type":"Point","coordinates":[126.92330860000001,37.5519522]}},{"type":"Feature","properties":{"osm_id":"node/4427867857","name":"","layer":"poi","category":"pub"},"geometry":{"type":"Point","coordinates":[126.9312829,37.55465519999999]}},{"type":"Feature","properties":{"osm_id":"node/4432607990","name":"Craft One","layer":"poi","category":"bar"},"geometry":{"type":"Point","coordinates":[126.9270348,37.561921500000004]}},{"type":"Feature","properties":{"osm_id":"node/4433786106","name":"Florte Flower Cafe","layer":"poi","category":"cafe"},"geometry":{"type":"Point","coordinates":[126.92980030000001,37.55646250000001]}},{"type":"Feature","properties":{"osm_id":"node/4457447089","name":"더 올드 크로와상 팩토리","layer":"poi","category":"bakery"},"geometry":{"type":"Point","coordinates":[126.92942040000001,37.5549814]}},{"type":"Feature","properties":{"osm_id":"node/4488906390","name":"","layer":"poi","category":"pub"},"geometry":{"type":"Point","coordinates":[126.9290788,37.55840380000001]}},{"type":"Feature","properties":{"osm_id":"node/4518466191","name":"할리스","layer":"poi","category":"cafe"},"geometry":{"type":"Point","coordinates":[126.92428640000001,37.553064600000006]}},{"type":"Feature","properties":{"osm_id":"node/4546597278","name":"MALT&","layer":"poi","category":"bar"},"geometry":{"type":"Point","coordinates":[126.9262431,37.5563437]}},{"type":"Feature","properties":{"osm_id":"node/4592165689","name":"썰스데이파티","layer":"poi","category":"bar"},"geometry":{"type":"Point","coordinates":[126.9226604,37.5519333]}},{"type":"Feature","properties":{"osm_id":"node/4648366149","name":"카페바인","layer":"poi","category":"cafe"},"geometry":{"type":"Point","coordinates":[126.92950749999999,37.5580612]}},{"type":"Feature","properties":{"osm_id":"node/4701401690","name":"Media Cafe Hu","layer":"poi","category":"cafe"},"geometry":{"type":"Point","coordinates":[126.9243912,37.5578044]}},{"type":"Feature","properties":{"osm_id":"node/4707590889","name":"감나무집 기사식당","layer":"poi","category":"restaurant"},"geometry":{"type":"Point","coordinates":[126.92192529999998,37.5619618]}},{"type":"Feature","properties":{"osm_id":"node/4722160392","name":"고요남","layer":"poi","category":"restaurant"},"geometry":{"type":"Point","coordinates":[126.92217420000001,37.55125339999999]}},{"type":"Feature","properties":{"osm_id":"node/4722460489","name":"","layer":"poi","category":"restaurant"},"geometry":{"type":"Point","coordinates":[126.9230582,37.55111480000001]}},{"type":"Feature","properties":{"osm_id":"node/4723383889","name":"","layer":"poi","category":"restaurant"},"geometry":{"type":"Point","coordinates":[126.922911,37.5500836]}},{"type":"Feature","properties":{"osm_id":"node/4739643323","name":"까르따19","layer":"poi","category":"restaurant"},"geometry":{"type":"Point","coordinates":[126.92377400000001,37.56041019999999]}},{"type":"Feature","properties":{"osm_id":"node/4756001679","name":"봉주르정식","layer":"poi","category":"restaurant"},"geometry":{"type":"Point","coordinates":[126.93012450000002,37.5549246]}},{"type":"Feature","properties":{"osm_id":"node/4756270421","name":"弘大崔代表烤肉","layer":"poi","category":"restaurant"},"geometry":{"type":"Point","coordinates":[126.9242218,37.558201300000015]}},{"type":"Feature","properties":{"osm_id":"node/4756379221","name":"","layer":"poi","category":"cafe"},"geometry":{"type":"Point","coordinates":[126.9223347,37.554859]}},{"type":"Feature","properties":{"osm_id":"node/4757165433","name":"","layer":"poi","category":"restaurant"},"geometry":{"type":"Point","coordinates":[126.9233523,37.5542159]}},{"type":"Feature","properties":{"osm_id":"node/4757165440","name":"","layer":"poi","category":"bar"},"geometry":{"type":"Point","coordinates":[126.9292526,37.5548126]}},{"type":"Feature","properties":{"osm_id":"node/4757757223","name":"","layer":"poi","category":"restaurant"},"geometry":{"type":"Point","coordinates":[126.92348470000002,37.5543297]}},{"type":"Feature","properties":{"osm_id":"node/4759812922","name":"","layer":"poi","category":"cafe"},"geometry":{"type":"Point","coordinates":[126.92499989999999,37.5533827]}},{"type":"Feature","properties":{"osm_id":"node/4759931121","name":"","layer":"poi","category":"restaurant"},"geometry":{"type":"Point","coordinates":[126.9236412,37.554360100000004]}},{"type":"Feature","properties":{"osm_id":"node/4759952921","name":"","layer":"poi","category":"restaurant"},"geometry":{"type":"Point","coordinates":[126.9234564,37.55391139999999]}},{"type":"Feature","properties":{"osm_id":"node/4759958221","name":"","layer":"poi","category":"restaurant"},"geometry":{"type":"Point","coordinates":[126.9233443,37.5539938]}},{"type":"Feature","properties":{"osm_id":"node/4759958321","name":"","layer":"poi","category":"restaurant"},"geometry":{"type":"Point","coordinates":[126.9233556,37.5540827]}},{"type":"Feature","properties":{"osm_id":"node/4759958322","name":"세븐일레븐","layer":"poi","category":"convenience"},"geometry":{"type":"Point","coordinates":[126.91782170000002,37.55514680000001]}},{"type":"Feature","properties":{"osm_id":"node/4759958822","name":"","layer":"poi","category":"cafe"},"geometry":{"type":"Point","coordinates":[126.92378749999999,37.5536828]}},{"type":"Feature","properties":{"osm_id":"node/4759958825","name":"","layer":"poi","category":"restaurant"},"geometry":{"type":"Point","coordinates":[126.9211408,37.552957199999994]}},{"type":"Feature","properties":{"osm_id":"node/4759958826","name":"","layer":"poi","category":"restaurant"},"geometry":{"type":"Point","coordinates":[126.92166390000001,37.552131700000004]}},{"type":"Feature","properties":{"osm_id":"node/4759989722","name":"","layer":"poi","category":"restaurant"},"geometry":{"type":"Point","coordinates":[126.92261230000001,37.552270500000006]}},{"type":"Feature","properties":{"osm_id":"node/4760008621","name":"","layer":"poi","category":"restaurant"},"geometry":{"type":"Point","coordinates":[126.9205968,37.55222890000001]}},{"type":"Feature","properties":{"osm_id":"node/4768867322","name":"","layer":"poi","category":"restaurant"},"geometry":{"type":"Point","coordinates":[126.92021350000002,37.5507482]}},{"type":"Feature","properties":{"osm_id":"node/4768871824","name":"","layer":"poi","category":"restaurant"},"geometry":{"type":"Point","coordinates":[126.9212317,37.55156670000001]}},{"type":"Feature","properties":{"osm_id":"node/4768888321","name":"","layer":"poi","category":"restaurant"},"geometry":{"type":"Point","coordinates":[126.92136269999999,37.5504452]}},{"type":"Feature","properties":{"osm_id":"node/4772098423","name":"","layer":"poi","category":"restaurant"},"geometry":{"type":"Point","coordinates":[126.9241309,37.551129499999995]}},{"type":"Feature","properties":{"osm_id":"node/4772101121","name":"","layer":"poi","category":"restaurant"},"geometry":{"type":"Point","coordinates":[126.92187800000002,37.5500929]}},{"type":"Feature","properties":{"osm_id":"node/4777985024","name":"","layer":"poi","category":"restaurant"},"geometry":{"type":"Point","coordinates":[126.9247877,37.55639070000001]}},{"type":"Feature","properties":{"osm_id":"node/4788212621","name":"","layer":"poi","category":"restaurant"},"geometry":{"type":"Point","coordinates":[126.92054689999999,37.5540612]}},{"type":"Feature","properties":{"osm_id":"node/4814662324","name":"","layer":"poi","category":"restaurant"},"geometry":{"type":"Point","coordinates":[126.9176065,37.5586343]}},{"type":"Feature","properties":{"osm_id":"node/4841325862","name":"다락투","layer":"poi","category":"restaurant"},"geometry":{"type":"Point","coordinates":[126.9235362,37.552731400000006]}},{"type":"Feature","properties":{"osm_id":"node/4851406927","name":"","layer":"poi","category":"restaurant"},"geometry":{"type":"Point","coordinates":[126.92055080000002,37.5515177]}},{"type":"Feature","properties":{"osm_id":"node/4855902622","name":"","layer":"poi","category":"cafe"},"geometry":{"type":"Point","coordinates":[126.9261483,37.5558611]}},{"type":"Feature","properties":{"osm_id":"node/4855911922","name":"","layer":"poi","category":"cafe"},"geometry":{"type":"Point","coordinates":[126.925825,37.5557036]}},{"type":"Feature","properties":{"osm_id":"node/4857760622","name":"","layer":"poi","category":"cafe"},"geometry":{"type":"Point","coordinates":[126.9258593,37.553889100000006]}},{"type":"Feature","properties":{"osm_id":"node/4857764622","name":"GS25","layer":"poi","category":"convenience"},"geometry":{"type":"Point","coordinates":[126.92593890000002,37.55398550000001]}},{"type":"Feature","properties":{"osm_id":"node/4858797321","name":"CU","layer":"poi","category":"convenience"},"geometry":{"type":"Point","coordinates":[126.9241239,37.5531743]}},{"type":"Feature","properties":{"osm_id":"node/4858797322","name":"","layer":"poi","category":"cafe"},"geometry":{"type":"Point","coordinates":[126.9235791,37.55262570000001]}},{"type":"Feature","properties":{"osm_id":"node/4875439922","name":"세븐일레븐","layer":"poi","category":"convenience"},"geometry":{"type":"Point","coordinates":[126.9236748,37.5542034]}},{"type":"Feature","properties":{"osm_id":"node/4875446421","name":"세븐일레븐","layer":"poi","category":"convenience"},"geometry":{"type":"Point","coordinates":[126.9227237,37.5540221]}},{"type":"Feature","properties":{"osm_id":"node/4888711122","name":"","layer":"poi","category":"cafe"},"geometry":{"type":"Point","coordinates":[126.9272518,37.5559665]}},{"type":"Feature","properties":{"osm_id":"node/4888721121","name":"홍콩방점0410Plus","layer":"poi","category":"restaurant"},"geometry":{"type":"Point","coordinates":[126.92363900000001,37.5547736]}},{"type":"Feature","properties":{"osm_id":"node/4888721122","name":"이디야커피","layer":"poi","category":"cafe"},"geometry":{"type":"Point","coordinates":[126.9215653,37.55286190000001]}},{"type":"Feature","properties":{"osm_id":"node/4888721123","name":"","layer":"poi","category":"restaurant"},"geometry":{"type":"Point","coordinates":[126.92170659999998,37.5528899]}},{"type":"Feature","properties":{"osm_id":"node/4888721124","name":"","layer":"poi","category":"cafe"},"geometry":{"type":"Point","coordinates":[126.9219757,37.553511300000004]}},{"type":"Feature","properties":{"osm_id":"node/4888721125","name":"","layer":"poi","category":"cafe"},"geometry":{"type":"Point","coordinates":[126.92270700000002,37.555342499999995]}},{"type":"Feature","properties":{"osm_id":"node/4894814523","name":"","layer":"poi","category":"cafe"},"geometry":{"type":"Point","coordinates":[126.92062820000001,37.552243]}},{"type":"Feature","properties":{"osm_id":"node/4895379821","name":"","layer":"poi","category":"cafe"},"geometry":{"type":"Point","coordinates":[126.9260509,37.55475210000001]}},{"type":"Feature","properties":{"osm_id":"node/4898716822","name":"","layer":"poi","category":"cafe"},"geometry":{"type":"Point","coordinates":[126.920748,37.5568095]}},{"type":"Feature","properties":{"osm_id":"node/4903726121","name":"홍익숯불갈비생고기","layer":"poi","category":"restaurant"},"geometry":{"type":"Point","coordinates":[126.92620890000002,37.55633840000001]}},{"type":"Feature","properties":{"osm_id":"node/4905308721","name":"","layer":"poi","category":"bakery"},"geometry":{"type":"Point","coordinates":[126.9236452,37.554278]}},{"type":"Feature","properties":{"osm_id":"node/4925687321","name":"","layer":"poi","category":"restaurant"},"geometry":{"type":"Point","coordinates":[126.9217883,37.5530752]}},{"type":"Feature","properties":{"osm_id":"node/4928008576","name":"형님저요","layer":"poi","category":"restaurant"},"geometry":{"type":"Point","coordinates":[126.9249772,37.5560329]}},{"type":"Feature","properties":{"osm_id":"node/4928008577","name":"세븐일레븐","layer":"poi","category":"convenience"},"geometry":{"type":"Point","coordinates":[126.9243981,37.5558606]}},{"type":"Feature","properties":{"osm_id":"node/4928008578","name":"나루수산","layer":"poi","category":"restaurant"},"geometry":{"type":"Point","coordinates":[126.92463950000001,37.555901]}},{"type":"Feature","properties":{"osm_id":"node/4928008579","name":"황대감","layer":"poi","category":"restaurant"},"geometry":{"type":"Point","coordinates":[126.92480579999999,37.5559372]}},{"type":"Feature","properties":{"osm_id":"node/4928008580","name":"하회마을","layer":"poi","category":"restaurant"},"geometry":{"type":"Point","coordinates":[126.92408960000002,37.555592700000005]}},{"type":"Feature","properties":{"osm_id":"node/4928008581","name":"미래안","layer":"poi","category":"restaurant"},"geometry":{"type":"Point","coordinates":[126.92355140000001,37.55527800000001]}},{"type":"Feature","properties":{"osm_id":"node/4928008582","name":"육지","layer":"poi","category":"restaurant"},"geometry":{"type":"Point","coordinates":[126.92712100000001,37.5569098]}},{"type":"Feature","properties":{"osm_id":"node/4928008583","name":"호노","layer":"poi","category":"restaurant"},"geometry":{"type":"Point","coordinates":[126.92637370000001,37.5567098]}},{"type":"Feature","properties":{"osm_id":"node/4928008584","name":"배떼기 곱창","layer":"poi","category":"restaurant"},"geometry":{"type":"Point","coordinates":[126.92605420000001,37.556751299999995]}},{"type":"Feature","properties":{"osm_id":"node/4928008585","name":"옛날집","layer":"poi","category":"restaurant"},"geometry":{"type":"Point","coordinates":[126.92567130000002,37.5565247]}},{"type":"Feature","properties":{"osm_id":"node/4928008586","name":"제주십육돈가","layer":"poi","category":"restaurant"},"geometry":{"type":"Point","coordinates":[126.92548500000001,37.55647700000001]}},{"type":"Feature","properties":{"osm_id":"node/4928008587","name":"니뽕내뽕","layer":"poi","category":"restaurant"},"geometry":{"type":"Point","coordinates":[126.92504640000001,37.556603100000004]}},{"type":"Feature","properties":{"osm_id":"node/4928008588","name":"부산집","layer":"poi","category":"restaurant"},"geometry":{"type":"Point","coordinates":[126.92559370000001,37.5567093]}},{"type":"Feature","properties":{"osm_id":"node/4928008589","name":"조가네 제주 생갈비","layer":"poi","category":"restaurant"},"geometry":{"type":"Point","coordinates":[126.9245558,37.55618249999999]}},{"type":"Feature","properties":{"osm_id":"node/4928008590","name":"홍대포","layer":"poi","category":"restaurant"},"geometry":{"type":"Point","coordinates":[126.9243423,37.5560589]}},{"type":"Feature","properties":{"osm_id":"node/4928008592","name":"버거4.5","layer":"poi","category":"restaurant"},"geometry":{"type":"Point","coordinates":[126.9264936,37.556357500000004]}},{"type":"Feature","properties":{"osm_id":"node/4928008594","name":"홍구삼겹","layer":"poi","category":"restaurant"},"geometry":{"type":"Point","coordinates":[126.9273495,37.5565038]}},{"type":"Feature","properties":{"osm_id":"node/4934258622","name":"홍익게장","layer":"poi","category":"restaurant"},"geometry":{"type":"Point","coordinates":[126.9168772,37.5593612]}},{"type":"Feature","properties":{"osm_id":"node/4945094726","name":"블루스 커피","layer":"poi","category":"cafe"},"geometry":{"type":"Point","coordinates":[126.92399599999999,37.549904299999994]}},{"type":"Feature","properties":{"osm_id":"node/4945095324","name":"슈아브","layer":"poi","category":"cafe"},"geometry":{"type":"Point","coordinates":[126.91892019999999,37.5567515]}},{"type":"Feature","properties":{"osm_id":"node/4945119127","name":"아이앰어버거","layer":"poi","category":"restaurant"},"geometry":{"type":"Point","coordinates":[126.9300008,37.5543551]}},{"type":"Feature","properties":{"osm_id":"node/4945326121","name":"국시집","layer":"poi","category":"restaurant"},"geometry":{"type":"Point","coordinates":[126.9223097,37.55242479999999]}},{"type":"Feature","properties":{"osm_id":"node/4948872731","name":"낭풍","layer":"poi","category":"restaurant"},"geometry":{"type":"Point","coordinates":[126.9207736,37.55225570000001]}},{"type":"Feature","properties":{"osm_id":"node/4957872925","name":"스타벅스","layer":"poi","category":"cafe"},"geometry":{"type":"Point","coordinates":[126.92478929999999,37.55320689999999]}},{"type":"Feature","properties":{"osm_id":"node/4968428141","name":"공중캠프","layer":"poi","category":"cafe"},"geometry":{"type":"Point","coordinates":[126.9299544,37.5545237]}},{"type":"Feature","properties":{"osm_id":"node/4968428142","name":"두리반","layer":"poi","category":"restaurant"},"geometry":{"type":"Point","coordinates":[126.92040709999999,37.553363499999996]}},{"type":"Feature","properties":{"osm_id":"node/4970189537","name":"가비애","layer":"poi","category":"cafe"},"geometry":{"type":"Point","coordinates":[126.9296659,37.554438700000006]}},{"type":"Feature","properties":{"osm_id":"node/4975160423","name":"","layer":"poi","category":"cafe"},"geometry":{"type":"Point","coordinates":[126.9277762,37.5533947]}},{"type":"Feature","properties":{"osm_id":"node/4987943631","name":"","layer":"poi","category":"cafe"},"geometry":{"type":"Point","coordinates":[126.92436910000002,37.5537745]}},{"type":"Feature","properties":{"osm_id":"node/4999348624","name":"","layer":"poi","category":"bar"},"geometry":{"type":"Point","coordinates":[126.9233021,37.552542700000004]}},{"type":"Feature","properties":{"osm_id":"node/5001042122","name":"Hongacheu , Tonkatsu","layer":"poi","category":"restaurant"},"geometry":{"type":"Point","coordinates":[126.9220382,37.5527736]}},{"type":"Feature","properties":{"osm_id":"node/5025404121","name":"","layer":"poi","category":"bar"},"geometry":{"type":"Point","coordinates":[126.9232025,37.5502757]}},{"type":"Feature","properties":{"osm_id":"node/5034454623","name":"초마","layer":"poi","category":"restaurant"},"geometry":{"type":"Point","coordinates":[126.92326669999999,37.550776]}},{"type":"Feature","properties":{"osm_id":"node/5034460821","name":"","layer":"poi","category":"restaurant"},"geometry":{"type":"Point","coordinates":[126.92350030000001,37.550859700000004]}},{"type":"Feature","properties":{"osm_id":"node/5059413138","name":"","layer":"poi","category":"restaurant"},"geometry":{"type":"Point","coordinates":[126.9215765,37.5596188]}},{"type":"Feature","properties":{"osm_id":"node/5106729953","name":"지지고","layer":"poi","category":"restaurant"},"geometry":{"type":"Point","coordinates":[126.9245074,37.5533858]}},{"type":"Feature","properties":{"osm_id":"node/5106733851","name":"홍콩딤섬만두","layer":"poi","category":"restaurant"},"geometry":{"type":"Point","coordinates":[126.92443289999999,37.5535159]}},{"type":"Feature","properties":{"osm_id":"node/5106735231","name":"지로우 라멘","layer":"poi","category":"restaurant"},"geometry":{"type":"Point","coordinates":[126.92483490000001,37.553636]}},{"type":"Feature","properties":{"osm_id":"node/5124263721","name":"몬스터피자","layer":"poi","category":"fast_food"},"geometry":{"type":"Point","coordinates":[126.9230378,37.5510147]}},{"type":"Feature","properties":{"osm_id":"node/5164608638","name":"코키펍","layer":"poi","category":"bar"},"geometry":{"type":"Point","coordinates":[126.9227178,37.55207949999999]}},{"type":"Feature","properties":{"osm_id":"node/5164611372","name":"마익스 케빈","layer":"poi","category":"bar"},"geometry":{"type":"Point","coordinates":[126.92250639999999,37.5531637]}},{"type":"Feature","properties":{"osm_id":"node/5170790628","name":"SMØR Nordic Kitchen","layer":"poi","category":"restaurant"},"geometry":{"type":"Point","coordinates":[126.92604810000002,37.5623006]}},{"type":"Feature","properties":{"osm_id":"node/5176009323","name":"Subway","layer":"poi","category":"fast_food"},"geometry":{"type":"Point","coordinates":[126.9236706,37.553676]}},{"type":"Feature","properties":{"osm_id":"node/5176013321","name":"연어로만","layer":"poi","category":"restaurant"},"geometry":{"type":"Point","coordinates":[126.92369059999999,37.5536166]}},{"type":"Feature","properties":{"osm_id":"node/5177053025","name":"달꽃크레페","layer":"poi","category":"fast_food"},"geometry":{"type":"Point","coordinates":[126.92331440000001,37.55445910000001]}},{"type":"Feature","properties":{"osm_id":"node/5186277241","name":"","layer":"poi","category":"cafe"},"geometry":{"type":"Point","coordinates":[126.9273406,37.5542617]}},{"type":"Feature","properties":{"osm_id":"node/5186277242","name":"Cafe Ronin","layer":"poi","category":"cafe"},"geometry":{"type":"Point","coordinates":[126.92723210000001,37.5541636]}},{"type":"Feature","properties":{"osm_id":"node/5203467221","name":"Bar 앤드","layer":"poi","category":"bar"},"geometry":{"type":"Point","coordinates":[126.9239953,37.56209309999999]}},{"type":"Feature","properties":{"osm_id":"node/5215909721","name":"CharCoaldy","layer":"poi","category":"fast_food"},"geometry":{"type":"Point","coordinates":[126.9269271,37.5544643]}},{"type":"Feature","properties":{"osm_id":"node/5216068022","name":"CU","layer":"poi","category":"convenience"},"geometry":{"type":"Point","coordinates":[126.9245839,37.5600915]}},{"type":"Feature","properties":{"osm_id":"node/5216068023","name":"세븐일레븐","layer":"poi","category":"convenience"},"geometry":{"type":"Point","coordinates":[126.92408569999999,37.5612562]}},{"type":"Feature","properties":{"osm_id":"node/5245550924","name":"Pizza School","layer":"poi","category":"restaurant"},"geometry":{"type":"Point","coordinates":[126.9231369,37.558381100000005]}},{"type":"Feature","properties":{"osm_id":"node/5253331921","name":"아날로그가든","layer":"poi","category":"cafe"},"geometry":{"type":"Point","coordinates":[126.91805040000001,37.5553759]}},{"type":"Feature","properties":{"osm_id":"node/5309488928","name":"교수곱장","layer":"poi","category":"restaurant"},"geometry":{"type":"Point","coordinates":[126.92174640000002,37.5533045]}},{"type":"Feature","properties":{"osm_id":"node/5309488929","name":"교수곱창","layer":"poi","category":"restaurant"},"geometry":{"type":"Point","coordinates":[126.9216122,37.553004699999995]}},{"type":"Feature","properties":{"osm_id":"node/5309489127","name":"육쌈냉면","layer":"poi","category":"restaurant"},"geometry":{"type":"Point","coordinates":[126.9215639,37.5517565]}},{"type":"Feature","properties":{"osm_id":"node/5309489128","name":"","layer":"poi","category":"restaurant"},"geometry":{"type":"Point","coordinates":[126.9216727,37.5531677]}},{"type":"Feature","properties":{"osm_id":"node/5310355621","name":"sarr","layer":"poi","category":"cafe"},"geometry":{"type":"Point","coordinates":[126.92443100000001,37.56128300000001]}},{"type":"Feature","properties":{"osm_id":"node/5310380222","name":"","layer":"poi","category":"cafe"},"geometry":{"type":"Point","coordinates":[126.92396050000002,37.5510434]}},{"type":"Feature","properties":{"osm_id":"node/5323023521","name":"착한갈비","layer":"poi","category":"restaurant"},"geometry":{"type":"Point","coordinates":[126.9253741,37.55645539999999]}},{"type":"Feature","properties":{"osm_id":"node/5344420228","name":"unlimited beers/coctails voor 15.000","layer":"poi","category":"bar"},"geometry":{"type":"Point","coordinates":[126.9214785,37.550203700000004]}},{"type":"Feature","properties":{"osm_id":"node/5406347621","name":"Ppakkitto","layer":"poi","category":"bar"},"geometry":{"type":"Point","coordinates":[126.92685940000001,37.55635180000001]}},{"type":"Feature","properties":{"osm_id":"node/5437063521","name":"세븐일레븐","layer":"poi","category":"convenience"},"geometry":{"type":"Point","coordinates":[126.92903169999998,37.5538958]}},{"type":"Feature","properties":{"osm_id":"node/5464617122","name":"","layer":"poi","category":"restaurant"},"geometry":{"type":"Point","coordinates":[126.92165100000001,37.552692199999996]}},{"type":"Feature","properties":{"osm_id":"node/5472423833","name":"","layer":"poi","category":"restaurant"},"geometry":{"type":"Point","coordinates":[126.9240418,37.5622931]}},{"type":"Feature","properties":{"osm_id":"node/5475116421","name":"","layer":"poi","category":"restaurant"},"geometry":{"type":"Point","coordinates":[126.9263124,37.55629770000001]}},{"type":"Feature","properties":{"osm_id":"node/5565460122","name":"또보겠지 떡볶이 붕붕허니비점","layer":"poi","category":"restaurant"},"geometry":{"type":"Point","coordinates":[126.9244679,37.55898460000001]}},{"type":"Feature","properties":{"osm_id":"node/5607838322","name":"Ginger Pig BBQ","layer":"poi","category":"restaurant"},"geometry":{"type":"Point","coordinates":[126.9208887,37.5543531]}},{"type":"Feature","properties":{"osm_id":"node/5679166039","name":"연:덮","layer":"poi","category":"restaurant"},"geometry":{"type":"Point","coordinates":[126.92025890000001,37.5612223]}},{"type":"Feature","properties":{"osm_id":"node/5679166040","name":"피자피오","layer":"poi","category":"restaurant"},"geometry":{"type":"Point","coordinates":[126.9201972,37.56129070000001]}},{"type":"Feature","properties":{"osm_id":"node/5679169223","name":"김밥세상","layer":"poi","category":"restaurant"},"geometry":{"type":"Point","coordinates":[126.92028260000001,37.5609961]}},{"type":"Feature","properties":{"osm_id":"node/5681409634","name":"따순밥꼬순전","layer":"poi","category":"restaurant"},"geometry":{"type":"Point","coordinates":[126.92025620000001,37.56102190000001]}},{"type":"Feature","properties":{"osm_id":"node/5704375821","name":"","layer":"poi","category":"restaurant"},"geometry":{"type":"Point","coordinates":[126.9225157,37.55492069999998]}},{"type":"Feature","properties":{"osm_id":"node/5714512921","name":"스타벅스","layer":"poi","category":"cafe"},"geometry":{"type":"Point","coordinates":[126.92299510000001,37.55035070000001]}},{"type":"Feature","properties":{"osm_id":"node/5744853705","name":"Coffeebe","layer":"poi","category":"cafe"},"geometry":{"type":"Point","coordinates":[126.92550030000001,37.55894700000001]}},{"type":"Feature","properties":{"osm_id":"node/5744854126","name":"Cosy","layer":"poi","category":"restaurant"},"geometry":{"type":"Point","coordinates":[126.9249015,37.5596806]}},{"type":"Feature","properties":{"osm_id":"node/5744854132","name":"코르크","layer":"poi","category":"restaurant"},"geometry":{"type":"Point","coordinates":[126.92481890000002,37.55977080000001]}},{"type":"Feature","properties":{"osm_id":"node/5744854138","name":"electric sheep","layer":"poi","category":"cafe"},"geometry":{"type":"Point","coordinates":[126.9247393,37.55989340000001]}},{"type":"Feature","properties":{"osm_id":"node/5795786456","name":"스타벅스","layer":"poi","category":"cafe"},"geometry":{"type":"Point","coordinates":[126.91852959999999,37.5533421]}},{"type":"Feature","properties":{"osm_id":"node/5795794854","name":"스타벅스","layer":"poi","category":"cafe"},"geometry":{"type":"Point","coordinates":[126.9204789,37.5547789]}},{"type":"Feature","properties":{"osm_id":"node/5795892555","name":"Monster Pizza Station","layer":"poi","category":"fast_food"},"geometry":{"type":"Point","coordinates":[126.9248919,37.5587678]}},{"type":"Feature","properties":{"osm_id":"node/5797666641","name":"스타벅스","layer":"poi","category":"cafe"},"geometry":{"type":"Point","coordinates":[126.9251425,37.55752160000001]}},{"type":"Feature","properties":{"osm_id":"node/5798208054","name":"마녀커리크림치킨2호점","layer":"poi","category":"restaurant"},"geometry":{"type":"Point","coordinates":[126.9282154,37.55390090000001]}},{"type":"Feature","properties":{"osm_id":"node/5803782706","name":"Lounge Market","layer":"poi","category":"cafe"},"geometry":{"type":"Point","coordinates":[126.9248459,37.5587465]}},{"type":"Feature","properties":{"osm_id":"node/5803782707","name":"Del Rio","layer":"poi","category":"restaurant"},"geometry":{"type":"Point","coordinates":[126.9247618,37.5586761]}},{"type":"Feature","properties":{"osm_id":"node/5803782708","name":"Analog Kitchen","layer":"poi","category":"restaurant"},"geometry":{"type":"Point","coordinates":[126.924777,37.558690000000006]}},{"type":"Feature","properties":{"osm_id":"node/5803798167","name":"Interview","layer":"poi","category":"cafe"},"geometry":{"type":"Point","coordinates":[126.92484420000001,37.5591033]}},{"type":"Feature","properties":{"osm_id":"node/5803798186","name":"건어물","layer":"poi","category":"bar"},"geometry":{"type":"Point","coordinates":[126.9243624,37.5596762]}},{"type":"Feature","properties":{"osm_id":"node/5810057253","name":"","layer":"poi","category":"bar"},"geometry":{"type":"Point","coordinates":[126.9212236,37.5513852]}},{"type":"Feature","properties":{"osm_id":"node/5811415565","name":"Reggae Chicken","layer":"poi","category":"restaurant"},"geometry":{"type":"Point","coordinates":[126.9253166,37.5591098]}},{"type":"Feature","properties":{"osm_id":"node/5811415566","name":"대왕","layer":"poi","category":"restaurant"},"geometry":{"type":"Point","coordinates":[126.92529020000002,37.55914380000001]}},{"type":"Feature","properties":{"osm_id":"node/5811415568","name":"비에뜨반미","layer":"poi","category":"restaurant"},"geometry":{"type":"Point","coordinates":[126.9252166,37.55925009999999]}},{"type":"Feature","properties":{"osm_id":"node/5811415570","name":"연트럴 김식당","layer":"poi","category":"restaurant"},"geometry":{"type":"Point","coordinates":[126.9250706,37.55946670000001]}},{"type":"Feature","properties":{"osm_id":"node/5811415571","name":"몬스터 문어빵","layer":"poi","category":"restaurant"},"geometry":{"type":"Point","coordinates":[126.92509709999999,37.559467700000006]}},{"type":"Feature","properties":{"osm_id":"node/5811415572","name":"만나 떡볶이","layer":"poi","category":"restaurant"},"geometry":{"type":"Point","coordinates":[126.9251179,37.559478200000015]}},{"type":"Feature","properties":{"osm_id":"node/5811415573","name":"봉황당","layer":"poi","category":"bar"},"geometry":{"type":"Point","coordinates":[126.9251381,37.55948970000001]}},{"type":"Feature","properties":{"osm_id":"node/5811415575","name":"망원동 티","layer":"poi","category":"cafe"},"geometry":{"type":"Point","coordinates":[126.9249845,37.559572900000006]}},{"type":"Feature","properties":{"osm_id":"node/5811415576","name":"Hand Steak","layer":"poi","category":"restaurant"},"geometry":{"type":"Point","coordinates":[126.92491410000001,37.559669199999995]}},{"type":"Feature","properties":{"osm_id":"node/5811415577","name":"한탕","layer":"poi","category":"restaurant"},"geometry":{"type":"Point","coordinates":[126.92480640000001,37.559782999999996]}},{"type":"Feature","properties":{"osm_id":"node/5811415588","name":"피켄스커피","layer":"poi","category":"cafe"},"geometry":{"type":"Point","coordinates":[126.9246326,37.5600224]}},{"type":"Feature","properties":{"osm_id":"node/5811415598","name":"연남부르스리","layer":"poi","category":"restaurant"},"geometry":{"type":"Point","coordinates":[126.92445470000001,37.560268099999995]}},{"type":"Feature","properties":{"osm_id":"node/5811415599","name":"쉬림핑","layer":"poi","category":"restaurant"},"geometry":{"type":"Point","coordinates":[126.92443559999998,37.5603014]}},{"type":"Feature","properties":{"osm_id":"node/5811719853","name":"","layer":"poi","category":"bar"},"geometry":{"type":"Point","coordinates":[126.92101730000002,37.550575499999994]}},{"type":"Feature","properties":{"osm_id":"node/5836107743","name":"GS25","layer":"poi","category":"convenience"},"geometry":{"type":"Point","coordinates":[126.927145,37.5621055]}},{"type":"Feature","properties":{"osm_id":"node/5839354785","name":"","layer":"poi","category":"restaurant"},"geometry":{"type":"Point","coordinates":[126.9220316,37.5511841]}},{"type":"Feature","properties":{"osm_id":"node/5842929862","name":"Grilled 300","layer":"poi","category":"restaurant"},"geometry":{"type":"Point","coordinates":[126.92443660000002,37.560408]}},{"type":"Feature","properties":{"osm_id":"node/5842929865","name":"미스터 후라이드","layer":"poi","category":"restaurant"},"geometry":{"type":"Point","coordinates":[126.9244125,37.5604521]}},{"type":"Feature","properties":{"osm_id":"node/5842929870","name":"Yeonnam Beach","layer":"poi","category":"bar"},"geometry":{"type":"Point","coordinates":[126.92440669999999,37.56048969999999]}},{"type":"Feature","properties":{"osm_id":"node/5842929871","name":"연남빠니니","layer":"poi","category":"restaurant"},"geometry":{"type":"Point","coordinates":[126.92440669999999,37.56052]}},{"type":"Feature","properties":{"osm_id":"node/5842929872","name":"학교앞 교시","layer":"poi","category":"restaurant"},"geometry":{"type":"Point","coordinates":[126.9244069,37.5605051]}},{"type":"Feature","properties":{"osm_id":"node/5842929873","name":"Under Floor","layer":"poi","category":"cafe"},"geometry":{"type":"Point","coordinates":[126.9244048,37.56053179999999]}},{"type":"Feature","properties":{"osm_id":"node/5842929874","name":"세븐일레븐","layer":"poi","category":"convenience"},"geometry":{"type":"Point","coordinates":[126.9244021,37.5605788]}},{"type":"Feature","properties":{"osm_id":"node/5919544685","name":"홍대입구","layer":"poi","category":"station"},"geometry":{"type":"Point","coordinates":[126.92690800000001,37.557348700000006]}},{"type":"Feature","properties":{"osm_id":"node/5936086093","name":"Slow Cali","layer":"poi","category":"restaurant"},"geometry":{"type":"Point","coordinates":[126.9257378,37.5613598]}},{"type":"Feature","properties":{"osm_id":"node/5936086094","name":"고깃집","layer":"poi","category":"restaurant"},"geometry":{"type":"Point","coordinates":[126.9242016,37.562221400000006]}},{"type":"Feature","properties":{"osm_id":"node/5936086095","name":"Mr Wow","layer":"poi","category":"fast_food"},"geometry":{"type":"Point","coordinates":[126.92448860000002,37.5623383]}},{"type":"Feature","properties":{"osm_id":"node/5936086096","name":"Dutch & Bean","layer":"poi","category":"cafe"},"geometry":{"type":"Point","coordinates":[126.92452880000002,37.5623872]}},{"type":"Feature","properties":{"osm_id":"node/5957110687","name":"","layer":"poi","category":"bar"},"geometry":{"type":"Point","coordinates":[126.9222918,37.5524795]}},{"type":"Feature","properties":{"osm_id":"node/6033675486","name":"","layer":"poi","category":"cafe"},"geometry":{"type":"Point","coordinates":[126.92686030000002,37.556827]}},{"type":"Feature","properties":{"osm_id":"node/6046516298","name":"","layer":"poi","category":"bar"},"geometry":{"type":"Point","coordinates":[126.92699650000002,37.55632200000001]}},{"type":"Feature","properties":{"osm_id":"node/6173484276","name":"서대문 양꼬치","layer":"poi","category":"restaurant"},"geometry":{"type":"Point","coordinates":[126.92430920000001,37.562289500000006]}},{"type":"Feature","properties":{"osm_id":"node/6173484277","name":"봉은노래방","layer":"poi","category":"bar"},"geometry":{"type":"Point","coordinates":[126.92429339999998,37.5622985]}},{"type":"Feature","properties":{"osm_id":"node/6182279689","name":"","layer":"poi","category":"restaurant"},"geometry":{"type":"Point","coordinates":[126.9241818,37.555689400000006]}},{"type":"Feature","properties":{"osm_id":"node/6270887794","name":"유원냉면&육개장","layer":"poi","category":"restaurant"},"geometry":{"type":"Point","coordinates":[126.9167713,37.557763300000005]}},{"type":"Feature","properties":{"osm_id":"node/6270902727","name":"뚜레쥬르","layer":"poi","category":"bakery"},"geometry":{"type":"Point","coordinates":[126.91717769999998,37.55694730000001]}},{"type":"Feature","properties":{"osm_id":"node/6273488561","name":"할리스커피","layer":"poi","category":"cafe"},"geometry":{"type":"Point","coordinates":[126.92237289999998,37.5561919]}},{"type":"Feature","properties":{"osm_id":"node/6276970586","name":"갑또리닭강정","layer":"poi","category":"restaurant"},"geometry":{"type":"Point","coordinates":[126.9249605,37.562134699999994]}},{"type":"Feature","properties":{"osm_id":"node/6296965787","name":"마랑테이블","layer":"poi","category":"cafe"},"geometry":{"type":"Point","coordinates":[126.92656200000002,37.56186610000001]}},{"type":"Feature","properties":{"osm_id":"node/6296979686","name":"해즈밀","layer":"poi","category":"restaurant"},"geometry":{"type":"Point","coordinates":[126.92652609999999,37.561835300000006]}},{"type":"Feature","properties":{"osm_id":"node/6298592585","name":"","layer":"poi","category":"cafe"},"geometry":{"type":"Point","coordinates":[126.9225497,37.5576845]}},{"type":"Feature","properties":{"osm_id":"node/6338094488","name":"Bar다","layer":"poi","category":"bar"},"geometry":{"type":"Point","coordinates":[126.92235300000002,37.5541258]}},{"type":"Feature","properties":{"osm_id":"node/6341132586","name":"","layer":"poi","category":"cafe"},"geometry":{"type":"Point","coordinates":[126.9252698,37.5583112]}},{"type":"Feature","properties":{"osm_id":"node/6341780602","name":"","layer":"poi","category":"restaurant"},"geometry":{"type":"Point","coordinates":[126.9188492,37.5566162]}},{"type":"Feature","properties":{"osm_id":"node/6342602985","name":"유어마나","layer":"poi","category":"restaurant"},"geometry":{"type":"Point","coordinates":[126.9299049,37.5542202]}},{"type":"Feature","properties":{"osm_id":"node/6342677586","name":"","layer":"poi","category":"cafe"},"geometry":{"type":"Point","coordinates":[126.9268044,37.5621857]}},{"type":"Feature","properties":{"osm_id":"node/6411665658","name":"Coffee Brown","layer":"poi","category":"cafe"},"geometry":{"type":"Point","coordinates":[126.9234897,37.5554229]}},{"type":"Feature","properties":{"osm_id":"node/6411666015","name":"James Chicago Pizza","layer":"poi","category":"restaurant"},"geometry":{"type":"Point","coordinates":[126.92388130000002,37.555463500000016]}},{"type":"Feature","properties":{"osm_id":"node/6411666016","name":"Golden Crema","layer":"poi","category":"cafe"},"geometry":{"type":"Point","coordinates":[126.9235955,37.5555287]}},{"type":"Feature","properties":{"osm_id":"node/6411666020","name":"스타벅스","layer":"poi","category":"cafe"},"geometry":{"type":"Point","coordinates":[126.92317819999998,37.550169100000005]}},{"type":"Feature","properties":{"osm_id":"node/6411666021","name":"Marble Pub","layer":"poi","category":"pub"},"geometry":{"type":"Point","coordinates":[126.9231797,37.550104]}},{"type":"Feature","properties":{"osm_id":"node/6411666162","name":"Skyrabbit Cafe","layer":"poi","category":"cafe"},"geometry":{"type":"Point","coordinates":[126.9224645,37.5547998]}},{"type":"Feature","properties":{"osm_id":"node/6411666347","name":"Tom N Toms","layer":"poi","category":"cafe"},"geometry":{"type":"Point","coordinates":[126.9213881,37.5508986]}},{"type":"Feature","properties":{"osm_id":"node/6411666354","name":"세븐일레븐","layer":"poi","category":"convenience"},"geometry":{"type":"Point","coordinates":[126.9264788,37.5545453]}},{"type":"Feature","properties":{"osm_id":"node/6411666355","name":"","layer":"poi","category":"cafe"},"geometry":{"type":"Point","coordinates":[126.9267281,37.5567859]}},{"type":"Feature","properties":{"osm_id":"node/6411666359","name":"하카타나카","layer":"poi","category":"restaurant"},"geometry":{"type":"Point","coordinates":[126.92366950000002,37.555051899999995]}},{"type":"Feature","properties":{"osm_id":"node/6411666499","name":"이디야커피","layer":"poi","category":"cafe"},"geometry":{"type":"Point","coordinates":[126.92651569999998,37.55638249999999]}},{"type":"Feature","properties":{"osm_id":"node/6411666800","name":"이디야커피","layer":"poi","category":"cafe"},"geometry":{"type":"Point","coordinates":[126.9236437,37.5542289]}},{"type":"Feature","properties":{"osm_id":"node/6411666803","name":"라망두스","layer":"poi","category":"cafe"},"geometry":{"type":"Point","coordinates":[126.92702170000001,37.554385]}},{"type":"Feature","properties":{"osm_id":"node/6411667544","name":"The Coffee Bean & Tea Leaf","layer":"poi","category":"cafe"},"geometry":{"type":"Point","coordinates":[126.92328,37.55551320000001]}},{"type":"Feature","properties":{"osm_id":"node/6411909699","name":"","layer":"poi","category":"restaurant"},"geometry":{"type":"Point","coordinates":[126.9206567,37.55295400000001]}},{"type":"Feature","properties":{"osm_id":"node/6411910015","name":"King's Cross","layer":"poi","category":"cafe"},"geometry":{"type":"Point","coordinates":[126.92079620000001,37.5530335]}},{"type":"Feature","properties":{"osm_id":"node/6411910102","name":"Cafe Fors","layer":"poi","category":"cafe"},"geometry":{"type":"Point","coordinates":[126.92057219999998,37.5528929]}},{"type":"Feature","properties":{"osm_id":"node/6411910480","name":"The GL","layer":"poi","category":"cafe"},"geometry":{"type":"Point","coordinates":[126.9210157,37.5533745]}},{"type":"Feature","properties":{"osm_id":"node/6411910485","name":"Hog's Head","layer":"poi","category":"pub"},"geometry":{"type":"Point","coordinates":[126.9207193,37.5529945]}},{"type":"Feature","properties":{"osm_id":"node/6414255574","name":"Hollys","layer":"poi","category":"cafe"},"geometry":{"type":"Point","coordinates":[126.9228081,37.5548138]}},{"type":"Feature","properties":{"osm_id":"node/6414255575","name":"","layer":"poi","category":"restaurant"},"geometry":{"type":"Point","coordinates":[126.92273170000001,37.5547395]}},{"type":"Feature","properties":{"osm_id":"node/6414255580","name":"Aquaqu Cafe","layer":"poi","category":"cafe"},"geometry":{"type":"Point","coordinates":[126.923231,37.55497570000001]}},{"type":"Feature","properties":{"osm_id":"node/6414256826","name":"투썸플레이스","layer":"poi","category":"cafe"},"geometry":{"type":"Point","coordinates":[126.9234327,37.55745430000001]}},{"type":"Feature","properties":{"osm_id":"node/6414257640","name":"Chicken Bus","layer":"poi","category":"bar"},"geometry":{"type":"Point","coordinates":[126.9237288,37.5556423]}},{"type":"Feature","properties":{"osm_id":"node/6414257750","name":"","layer":"poi","category":"restaurant"},"geometry":{"type":"Point","coordinates":[126.9228176,37.554809299999995]}},{"type":"Feature","properties":{"osm_id":"node/6414257815","name":"Big Guy's Seafood","layer":"poi","category":"restaurant"},"geometry":{"type":"Point","coordinates":[126.92177370000002,37.5557074]}},{"type":"Feature","properties":{"osm_id":"node/6414257984","name":"Komans","layer":"poi","category":"cafe"},"geometry":{"type":"Point","coordinates":[126.9230373,37.5550041]}},{"type":"Feature","properties":{"osm_id":"node/6414258309","name":"더벤티","layer":"poi","category":"cafe"},"geometry":{"type":"Point","coordinates":[126.92295910000001,37.554925600000004]}},{"type":"Feature","properties":{"osm_id":"node/6414258310","name":"새벽","layer":"poi","category":"pub"},"geometry":{"type":"Point","coordinates":[126.92373220000002,37.5555952]}},{"type":"Feature","properties":{"osm_id":"node/6414258311","name":"Tiger Sugar","layer":"poi","category":"cafe"},"geometry":{"type":"Point","coordinates":[126.92396869999999,37.55555129999999]}},{"type":"Feature","properties":{"osm_id":"node/6414258312","name":"","layer":"poi","category":"restaurant"},"geometry":{"type":"Point","coordinates":[126.92413490000001,37.555918000000005]}},{"type":"Feature","properties":{"osm_id":"node/6414258385","name":"","layer":"poi","category":"restaurant"},"geometry":{"type":"Point","coordinates":[126.92320210000001,37.5549831]}},{"type":"Feature","properties":{"osm_id":"node/6414258386","name":"","layer":"poi","category":"fast_food"},"geometry":{"type":"Point","coordinates":[126.9242668,37.5557545]}},{"type":"Feature","properties":{"osm_id":"node/6433505385","name":"","layer":"poi","category":"cafe"},"geometry":{"type":"Point","coordinates":[126.9282144,37.5560429]}},{"type":"Feature","properties":{"osm_id":"node/6433586285","name":"","layer":"poi","category":"cafe"},"geometry":{"type":"Point","coordinates":[126.9284908,37.55743390000001]}},{"type":"Feature","properties":{"osm_id":"node/6482111873","name":"GS25","layer":"poi","category":"convenience"},"geometry":{"type":"Point","coordinates":[126.9248716,37.5590791]}},{"type":"Feature","properties":{"osm_id":"node/6482112100","name":"본주르","layer":"poi","category":"cafe"},"geometry":{"type":"Point","coordinates":[126.9246588,37.5593183]}},{"type":"Feature","properties":{"osm_id":"node/6482112235","name":"Travel Maker","layer":"poi","category":"restaurant"},"geometry":{"type":"Point","coordinates":[126.9243132,37.5597747]}},{"type":"Feature","properties":{"osm_id":"node/6482112236","name":"Yoger Presso","layer":"poi","category":"cafe"},"geometry":{"type":"Point","coordinates":[126.92400800000001,37.560063400000004]}},{"type":"Feature","properties":{"osm_id":"node/6482130572","name":"Craft Hans","layer":"poi","category":"bar"},"geometry":{"type":"Point","coordinates":[126.92518850000002,37.5593525]}},{"type":"Feature","properties":{"osm_id":"node/6485202618","name":"곡산고기마을","layer":"poi","category":"restaurant"},"geometry":{"type":"Point","coordinates":[126.9209315,37.5563868]}},{"type":"Feature","properties":{"osm_id":"node/6485202619","name":"고구려 홍대점","layer":"poi","category":"restaurant"},"geometry":{"type":"Point","coordinates":[126.9205033,37.5564085]}},{"type":"Feature","properties":{"osm_id":"node/6499261785","name":"","layer":"poi","category":"cafe"},"geometry":{"type":"Point","coordinates":[126.9237221,37.5501573]}},{"type":"Feature","properties":{"osm_id":"node/6512571095","name":"","layer":"poi","category":"restaurant"},"geometry":{"type":"Point","coordinates":[126.92172290000002,37.5529081]}},{"type":"Feature","properties":{"osm_id":"node/6542004631","name":"","layer":"poi","category":"cafe"},"geometry":{"type":"Point","coordinates":[126.91787400000001,37.5597718]}},{"type":"Feature","properties":{"osm_id":"node/6554854685","name":"","layer":"poi","category":"fast_food"},"geometry":{"type":"Point","coordinates":[126.9231678,37.555140400000006]}},{"type":"Feature","properties":{"osm_id":"node/6562604543","name":"Mega MCG Coffee","layer":"poi","category":"cafe"},"geometry":{"type":"Point","coordinates":[126.9208662,37.5559629]}},{"type":"Feature","properties":{"osm_id":"node/6584500686","name":"CU","layer":"poi","category":"convenience"},"geometry":{"type":"Point","coordinates":[126.92678830000001,37.5574199]}},{"type":"Feature","properties":{"osm_id":"node/6590092085","name":"카페제인","layer":"poi","category":"cafe"},"geometry":{"type":"Point","coordinates":[126.92223240000001,37.5519224]}},{"type":"Feature","properties":{"osm_id":"node/6595612985","name":"연남오락실","layer":"poi","category":"pub"},"geometry":{"type":"Point","coordinates":[126.927102,37.5620533]}},{"type":"Feature","properties":{"osm_id":"node/6597936285","name":"더 귀여워 애견카페","layer":"poi","category":"bar"},"geometry":{"type":"Point","coordinates":[126.92211690000002,37.5500545]}},{"type":"Feature","properties":{"osm_id":"node/6618146586","name":"카에식탁","layer":"poi","category":"restaurant"},"geometry":{"type":"Point","coordinates":[126.9259358,37.5608686]}},{"type":"Feature","properties":{"osm_id":"node/6618146685","name":"나베식당","layer":"poi","category":"restaurant"},"geometry":{"type":"Point","coordinates":[126.9261636,37.5622839]}},{"type":"Feature","properties":{"osm_id":"node/6631210686","name":"클럽에반스","layer":"poi","category":"bar"},"geometry":{"type":"Point","coordinates":[126.9228494,37.55022410000001]}},{"type":"Feature","properties":{"osm_id":"node/6645844486","name":"기대, 연남","layer":"poi","category":"restaurant"},"geometry":{"type":"Point","coordinates":[126.9258831,37.5615406]}},{"type":"Feature","properties":{"osm_id":"node/6645866085","name":"데어데어 music pub","layer":"poi","category":"bar"},"geometry":{"type":"Point","coordinates":[126.92595250000001,37.5615948]}},{"type":"Feature","properties":{"osm_id":"node/6645866287","name":"메트로놈커피","layer":"poi","category":"cafe"},"geometry":{"type":"Point","coordinates":[126.9258965,37.562013400000005]}},{"type":"Feature","properties":{"osm_id":"node/6646046985","name":"","layer":"poi","category":"cafe"},"geometry":{"type":"Point","coordinates":[126.925567,37.5617047]}},{"type":"Feature","properties":{"osm_id":"node/6693774685","name":"파리바게뜨","layer":"poi","category":"bakery"},"geometry":{"type":"Point","coordinates":[126.9294788,37.55804070000001]}},{"type":"Feature","properties":{"osm_id":"node/6765365985","name":"No brand Burger","layer":"poi","category":"fast_food"},"geometry":{"type":"Point","coordinates":[126.92213040000001,37.554489800000006]}},{"type":"Feature","properties":{"osm_id":"node/6943595015","name":"이마트24","layer":"poi","category":"convenience"},"geometry":{"type":"Point","coordinates":[126.9161235,37.55755080000001]}},{"type":"Feature","properties":{"osm_id":"node/6959899287","name":"","layer":"poi","category":"restaurant"},"geometry":{"type":"Point","coordinates":[126.92026940000001,37.552224800000005]}},{"type":"Feature","properties":{"osm_id":"node/6991820486","name":"Casa Latina","layer":"poi","category":"restaurant"},"geometry":{"type":"Point","coordinates":[126.9288062,37.55436230000001]}},{"type":"Feature","properties":{"osm_id":"node/7140599427","name":"Blanc","layer":"poi","category":"bakery"},"geometry":{"type":"Point","coordinates":[126.9261494,37.5583246]}},{"type":"Feature","properties":{"osm_id":"node/7140737785","name":"충화가정","layer":"poi","category":"restaurant"},"geometry":{"type":"Point","coordinates":[126.920974,37.5517209]}},{"type":"Feature","properties":{"osm_id":"node/7140737786","name":"강남돼지상회","layer":"poi","category":"restaurant"},"geometry":{"type":"Point","coordinates":[126.92127090000001,37.55356950000001]}},{"type":"Feature","properties":{"osm_id":"node/7140737986","name":"설레임삼겹살1989","layer":"poi","category":"restaurant"},"geometry":{"type":"Point","coordinates":[126.9231054,37.55280300000001]}},{"type":"Feature","properties":{"osm_id":"node/7140737987","name":"","layer":"poi","category":"restaurant"},"geometry":{"type":"Point","coordinates":[126.9235743,37.553727599999995]}},{"type":"Feature","properties":{"osm_id":"node/7140738286","name":"","layer":"poi","category":"restaurant"},"geometry":{"type":"Point","coordinates":[126.93160229999998,37.55466260000001]}},{"type":"Feature","properties":{"osm_id":"node/7140738287","name":"","layer":"poi","category":"restaurant"},"geometry":{"type":"Point","coordinates":[126.92632759999998,37.5562376]}},{"type":"Feature","properties":{"osm_id":"node/7140738586","name":"","layer":"poi","category":"restaurant"},"geometry":{"type":"Point","coordinates":[126.9231494,37.5553249]}},{"type":"Feature","properties":{"osm_id":"node/7140738587","name":"","layer":"poi","category":"restaurant"},"geometry":{"type":"Point","coordinates":[126.92380330000002,37.555891500000016]}},{"type":"Feature","properties":{"osm_id":"node/7150464086","name":"","layer":"poi","category":"restaurant"},"geometry":{"type":"Point","coordinates":[126.922064,37.5520143]}},{"type":"Feature","properties":{"osm_id":"node/7150523088","name":"1988고기불패 홍대본점","layer":"poi","category":"restaurant"},"geometry":{"type":"Point","coordinates":[126.92212659999998,37.5503428]}},{"type":"Feature","properties":{"osm_id":"node/7150523089","name":"또보겠지떡볶이 홍대본점","layer":"poi","category":"restaurant"},"geometry":{"type":"Point","coordinates":[126.92114489999999,37.5521687]}},{"type":"Feature","properties":{"osm_id":"node/7150523090","name":"","layer":"poi","category":"restaurant"},"geometry":{"type":"Point","coordinates":[126.92109800000001,37.552105]}},{"type":"Feature","properties":{"osm_id":"node/7150523091","name":"부야스곱창","layer":"poi","category":"restaurant"},"geometry":{"type":"Point","coordinates":[126.92569050000002,37.555767]}},{"type":"Feature","properties":{"osm_id":"node/7150523092","name":"홍짜장","layer":"poi","category":"restaurant"},"geometry":{"type":"Point","coordinates":[126.92437010000002,37.55633919999999]}},{"type":"Feature","properties":{"osm_id":"node/7150525686","name":"삼겹의 신","layer":"poi","category":"restaurant"},"geometry":{"type":"Point","coordinates":[126.92291560000001,37.554880000000004]}},{"type":"Feature","properties":{"osm_id":"node/7150525786","name":"마포곱장","layer":"poi","category":"restaurant"},"geometry":{"type":"Point","coordinates":[126.92560260000002,37.556494]}},{"type":"Feature","properties":{"osm_id":"node/7150525787","name":"","layer":"poi","category":"restaurant"},"geometry":{"type":"Point","coordinates":[126.9241557,37.555651900000015]}},{"type":"Feature","properties":{"osm_id":"node/7150527885","name":"","layer":"poi","category":"restaurant"},"geometry":{"type":"Point","coordinates":[126.92442350000002,37.56125850000001]}},{"type":"Feature","properties":{"osm_id":"node/7150527886","name":"","layer":"poi","category":"restaurant"},"geometry":{"type":"Point","coordinates":[126.9209171,37.551405300000006]}},{"type":"Feature","properties":{"osm_id":"node/7150527887","name":"","layer":"poi","category":"restaurant"},"geometry":{"type":"Point","coordinates":[126.9224372,37.5528248]}},{"type":"Feature","properties":{"osm_id":"node/7150584488","name":"","layer":"poi","category":"restaurant"},"geometry":{"type":"Point","coordinates":[126.92310340000002,37.55247930000001]}},{"type":"Feature","properties":{"osm_id":"node/7150584490","name":"감나무집기사식당","layer":"poi","category":"restaurant"},"geometry":{"type":"Point","coordinates":[126.9243438,37.55975659999999]}},{"type":"Feature","properties":{"osm_id":"node/7150628085","name":"심슨탕","layer":"poi","category":"restaurant"},"geometry":{"type":"Point","coordinates":[126.92113559999999,37.5529815]}},{"type":"Feature","properties":{"osm_id":"node/7150628185","name":"","layer":"poi","category":"restaurant"},"geometry":{"type":"Point","coordinates":[126.9204558,37.55185130000001]}},{"type":"Feature","properties":{"osm_id":"node/7150628285","name":"","layer":"poi","category":"restaurant"},"geometry":{"type":"Point","coordinates":[126.92372750000001,37.5531337]}},{"type":"Feature","properties":{"osm_id":"node/7160726137","name":"lpbar","layer":"poi","category":"bar"},"geometry":{"type":"Point","coordinates":[126.9204303,37.5533547]}},{"type":"Feature","properties":{"osm_id":"node/7165397585","name":"마걸리짜롱","layer":"poi","category":"restaurant"},"geometry":{"type":"Point","coordinates":[126.9231326,37.5527061]}},{"type":"Feature","properties":{"osm_id":"node/7183758386","name":"","layer":"poi","category":"restaurant"},"geometry":{"type":"Point","coordinates":[126.9223361,37.5575247]}},{"type":"Feature","properties":{"osm_id":"node/7216091987","name":"Primo bacio baci, pasta","layer":"poi","category":"restaurant"},"geometry":{"type":"Point","coordinates":[126.9236797,37.55480949999999]}},{"type":"Feature","properties":{"osm_id":"node/7216270985","name":"Ganggangsullae, BBq beef, pork","layer":"poi","category":"restaurant"},"geometry":{"type":"Point","coordinates":[126.9205474,37.5523382]}},{"type":"Feature","properties":{"osm_id":"node/7217546485","name":"Ganggangsullae ,beef bbq","layer":"poi","category":"restaurant"},"geometry":{"type":"Point","coordinates":[126.92056190000001,37.5523497]}},{"type":"Feature","properties":{"osm_id":"node/7217563685","name":"멘야산다이메","layer":"poi","category":"restaurant"},"geometry":{"type":"Point","coordinates":[126.92143320000001,37.5536985]}},{"type":"Feature","properties":{"osm_id":"node/7218128185","name":"Musso AUCE beef","layer":"poi","category":"restaurant"},"geometry":{"type":"Point","coordinates":[126.92206509999998,37.55094439999999]}},{"type":"Feature","properties":{"osm_id":"node/7218284685","name":"Kkot dwaeji Gallery AUCE Bbq","layer":"poi","category":"restaurant"},"geometry":{"type":"Point","coordinates":[126.92207550000002,37.5512372]}},{"type":"Feature","properties":{"osm_id":"node/7218381585","name":"Kkot Dwaeji Gallery,AUCE bbq","layer":"poi","category":"restaurant"},"geometry":{"type":"Point","coordinates":[126.92203779999998,37.5512199]}},{"type":"Feature","properties":{"osm_id":"node/7244951613","name":"봉쥬르밥상","layer":"poi","category":"restaurant"},"geometry":{"type":"Point","coordinates":[126.9234243,37.56229879999999]}},{"type":"Feature","properties":{"osm_id":"node/7247370877","name":"로야토야","layer":"poi","category":"restaurant"},"geometry":{"type":"Point","coordinates":[126.92130980000002,37.559426900000005]}},{"type":"Feature","properties":{"osm_id":"node/7342267705","name":"","layer":"poi","category":"restaurant"},"geometry":{"type":"Point","coordinates":[126.9289729,37.5585552]}},{"type":"Feature","properties":{"osm_id":"node/7497773941","name":"스타벅스","layer":"poi","category":"cafe"},"geometry":{"type":"Point","coordinates":[126.91997,37.5568373]}},{"type":"Feature","properties":{"osm_id":"node/7503442292","name":"미로식당","layer":"poi","category":"restaurant"},"geometry":{"type":"Point","coordinates":[126.9279564,37.55209239999999]}},{"type":"Feature","properties":{"osm_id":"node/8327979600","name":"버거락","layer":"poi","category":"fast_food"},"geometry":{"type":"Point","coordinates":[126.92731129999999,37.5588863]}},{"type":"Feature","properties":{"osm_id":"node/8556600420","name":"사 이토","layer":"poi","category":"restaurant"},"geometry":{"type":"Point","coordinates":[126.92361349999999,37.562099399999994]}},{"type":"Feature","properties":{"osm_id":"node/8556604224","name":"자연별곡","layer":"poi","category":"restaurant"},"geometry":{"type":"Point","coordinates":[126.9223124,37.5563609]}},{"type":"Feature","properties":{"osm_id":"node/8556604618","name":"","layer":"poi","category":"cafe"},"geometry":{"type":"Point","coordinates":[126.92562189999998,37.5619245]}},{"type":"Feature","properties":{"osm_id":"node/8556615018","name":"","layer":"poi","category":"bar"},"geometry":{"type":"Point","coordinates":[126.9260081,37.5616216]}},{"type":"Feature","properties":{"osm_id":"node/9301792441","name":"GS25","layer":"poi","category":"convenience"},"geometry":{"type":"Point","coordinates":[126.9278043,37.5598109]}},{"type":"Feature","properties":{"osm_id":"node/9301792464","name":"카페 잉겔스","layer":"poi","category":"restaurant"},"geometry":{"type":"Point","coordinates":[126.92776019999998,37.5600906]}},{"type":"Feature","properties":{"osm_id":"node/9301792496","name":"이젠떡볶이","layer":"poi","category":"restaurant"},"geometry":{"type":"Point","coordinates":[126.9274091,37.5606188]}},{"type":"Feature","properties":{"osm_id":"node/9301802350","name":"홍보석","layer":"poi","category":"restaurant"},"geometry":{"type":"Point","coordinates":[126.92797250000001,37.5586967]}},{"type":"Feature","properties":{"osm_id":"node/9301802352","name":"푸드까페딩가","layer":"poi","category":"restaurant"},"geometry":{"type":"Point","coordinates":[126.92811440000001,37.558840100000005]}},{"type":"Feature","properties":{"osm_id":"node/9301802353","name":"halal food","layer":"poi","category":"restaurant"},"geometry":{"type":"Point","coordinates":[126.9283219,37.558975100000005]}},{"type":"Feature","properties":{"osm_id":"node/9301802364","name":"남도밥상","layer":"poi","category":"restaurant"},"geometry":{"type":"Point","coordinates":[126.9280984,37.55863299999999]}},{"type":"Feature","properties":{"osm_id":"node/9301802440","name":"그대를 위한 커피","layer":"poi","category":"cafe"},"geometry":{"type":"Point","coordinates":[126.92875260000001,37.559029800000005]}},{"type":"Feature","properties":{"osm_id":"node/9301802441","name":"CU","layer":"poi","category":"convenience"},"geometry":{"type":"Point","coordinates":[126.92882229999998,37.5591858]}},{"type":"Feature","properties":{"osm_id":"node/9301802465","name":"NEWDAYS","layer":"poi","category":"convenience"},"geometry":{"type":"Point","coordinates":[126.9294041,37.55903579999999]}},{"type":"Feature","properties":{"osm_id":"node/9301802485","name":"","layer":"poi","category":"restaurant"},"geometry":{"type":"Point","coordinates":[126.9301325,37.557717]}},{"type":"Feature","properties":{"osm_id":"node/9315469932","name":"GS25","layer":"poi","category":"convenience"},"geometry":{"type":"Point","coordinates":[126.9308283,37.55797319999999]}},{"type":"Feature","properties":{"osm_id":"node/9379611576","name":"GS25","layer":"poi","category":"convenience"},"geometry":{"type":"Point","coordinates":[126.93089900000001,37.55434150000001]}},{"type":"Feature","properties":{"osm_id":"node/9379611577","name":"피자스쿨","layer":"poi","category":"restaurant"},"geometry":{"type":"Point","coordinates":[126.93106850000001,37.5542282]}},{"type":"Feature","properties":{"osm_id":"node/9447674415","name":"리틀파파포","layer":"poi","category":"restaurant"},"geometry":{"type":"Point","coordinates":[126.92032069999999,37.561146400000005]}},{"type":"Feature","properties":{"osm_id":"node/9720932253","name":"카페 허쉬드","layer":"poi","category":"cafe"},"geometry":{"type":"Point","coordinates":[126.9311187,37.5542001]}},{"type":"Feature","properties":{"osm_id":"node/9720945585","name":"세븐일레븐","layer":"poi","category":"convenience"},"geometry":{"type":"Point","coordinates":[126.9304919,37.5546186]}},{"type":"Feature","properties":{"osm_id":"node/9727179740","name":"밥순이","layer":"poi","category":"restaurant"},"geometry":{"type":"Point","coordinates":[126.93051529999998,37.5543335]}},{"type":"Feature","properties":{"osm_id":"node/10263756763","name":"Pink's","layer":"poi","category":"bar"},"geometry":{"type":"Point","coordinates":[126.92497890000001,37.5560611]}},{"type":"Feature","properties":{"osm_id":"node/10308810246","name":"매그놀리아","layer":"poi","category":"cafe"},"geometry":{"type":"Point","coordinates":[126.91938100000002,37.55196360000001]}},{"type":"Feature","properties":{"osm_id":"node/10656761605","name":"신미경 홍대 닭갈비","layer":"poi","category":"restaurant"},"geometry":{"type":"Point","coordinates":[126.9218584,37.552140699999995]}},{"type":"Feature","properties":{"osm_id":"node/10657295705","name":"교촌치킨","layer":"poi","category":"fast_food"},"geometry":{"type":"Point","coordinates":[126.92012390000001,37.55360700000001]}},{"type":"Feature","properties":{"osm_id":"node/10657336306","name":"Eggdrop","layer":"poi","category":"fast_food"},"geometry":{"type":"Point","coordinates":[126.92288329999998,37.553831499999994]}},{"type":"Feature","properties":{"osm_id":"node/10657884405","name":"Meerkat Friends","layer":"poi","category":"restaurant"},"geometry":{"type":"Point","coordinates":[126.9229878,37.552488499999995]}},{"type":"Feature","properties":{"osm_id":"node/10673253240","name":"하와이킴","layer":"poi","category":"cafe"},"geometry":{"type":"Point","coordinates":[126.92942109999998,37.5543116]}},{"type":"Feature","properties":{"osm_id":"node/10781264254","name":"Moritzplatzoom","layer":"poi","category":"cafe"},"geometry":{"type":"Point","coordinates":[126.92287390000001,37.55024819999999]}},{"type":"Feature","properties":{"osm_id":"node/10787211636","name":"파우스디멘션","layer":"poi","category":"cafe"},"geometry":{"type":"Point","coordinates":[126.91849080000001,37.5514383]}},{"type":"Feature","properties":{"osm_id":"node/10794747909","name":"붉은낙타","layer":"poi","category":"restaurant"},"geometry":{"type":"Point","coordinates":[126.920703,37.55131010000001]}},{"type":"Feature","properties":{"osm_id":"node/10866894779","name":"아피시온","layer":"poi","category":"bar"},"geometry":{"type":"Point","coordinates":[126.9201039,37.5519487]}},{"type":"Feature","properties":{"osm_id":"node/10875016934","name":"Hollys","layer":"poi","category":"cafe"},"geometry":{"type":"Point","coordinates":[126.9241432,37.56088]}},{"type":"Feature","properties":{"osm_id":"node/10923630487","name":"더블유오앤","layer":"poi","category":"cafe"},"geometry":{"type":"Point","coordinates":[126.9206924,37.55193890000001]}},{"type":"Feature","properties":{"osm_id":"node/10945995892","name":"핫메스 연남","layer":"poi","category":"cafe"},"geometry":{"type":"Point","coordinates":[126.92276620000001,37.5624615]}},{"type":"Feature","properties":{"osm_id":"node/10967510660","name":"카페드래빗","layer":"poi","category":"cafe"},"geometry":{"type":"Point","coordinates":[126.9239187,37.560965]}},{"type":"Feature","properties":{"osm_id":"node/11012630361","name":"비비리","layer":"poi","category":"restaurant"},"geometry":{"type":"Point","coordinates":[126.9236655,37.554906100000004]}},{"type":"Feature","properties":{"osm_id":"node/11046367777","name":"더스테이크쥬벤쿠바","layer":"poi","category":"restaurant"},"geometry":{"type":"Point","coordinates":[126.9256735,37.56178990000001]}},{"type":"Feature","properties":{"osm_id":"node/11050695654","name":"Melting Of","layer":"poi","category":"cafe"},"geometry":{"type":"Point","coordinates":[126.92627400000002,37.5617389]}},{"type":"Feature","properties":{"osm_id":"node/11070784732","name":"aall","layer":"poi","category":"cafe"},"geometry":{"type":"Point","coordinates":[126.9259608,37.555186299999995]}},{"type":"Feature","properties":{"osm_id":"node/11111316129","name":"서교왼손","layer":"poi","category":"restaurant"},"geometry":{"type":"Point","coordinates":[126.92038739999998,37.553374299999994]}},{"type":"Feature","properties":{"osm_id":"node/11169294559","name":"오이시쿠","layer":"poi","category":"bar"},"geometry":{"type":"Point","coordinates":[126.9249529,37.55890670000001]}},{"type":"Feature","properties":{"osm_id":"node/11193010763","name":"삼평식당 서울본점","layer":"poi","category":"restaurant"},"geometry":{"type":"Point","coordinates":[126.9201004,37.555791400000004]}},{"type":"Feature","properties":{"osm_id":"node/11197778118","name":"세븐일레븐","layer":"poi","category":"convenience"},"geometry":{"type":"Point","coordinates":[126.9272472,37.5575733]}},{"type":"Feature","properties":{"osm_id":"node/11279076469","name":"","layer":"poi","category":"restaurant"},"geometry":{"type":"Point","coordinates":[126.9252475,37.55966840000001]}},{"type":"Feature","properties":{"osm_id":"node/11306828534","name":"청돈옥","layer":"poi","category":"restaurant"},"geometry":{"type":"Point","coordinates":[126.9195228,37.5519498]}},{"type":"Feature","properties":{"osm_id":"node/11330761976","name":"Chungdonok","layer":"poi","category":"restaurant"},"geometry":{"type":"Point","coordinates":[126.9195273,37.5519216]}},{"type":"Feature","properties":{"osm_id":"node/11400865977","name":"테판클럽","layer":"poi","category":"restaurant"},"geometry":{"type":"Point","coordinates":[126.9241248,37.5617131]}},{"type":"Feature","properties":{"osm_id":"node/11425341919","name":"566라멘","layer":"poi","category":"restaurant"},"geometry":{"type":"Point","coordinates":[126.92086850000001,37.5605823]}},{"type":"Feature","properties":{"osm_id":"node/11425341920","name":"바다회사랑","layer":"poi","category":"restaurant"},"geometry":{"type":"Point","coordinates":[126.9210296,37.5604119]}},{"type":"Feature","properties":{"osm_id":"node/11425341921","name":"코티지블루","layer":"poi","category":"cafe"},"geometry":{"type":"Point","coordinates":[126.9207718,37.5604122]}},{"type":"Feature","properties":{"osm_id":"node/11493815456","name":"홍월포차","layer":"poi","category":"bar"},"geometry":{"type":"Point","coordinates":[126.9228677,37.55191940000001]}},{"type":"Feature","properties":{"osm_id":"node/11521643281","name":"느린마을","layer":"poi","category":"restaurant"},"geometry":{"type":"Point","coordinates":[126.92194560000002,37.5537738]}},{"type":"Feature","properties":{"osm_id":"node/11633675469","name":"커피랩","layer":"poi","category":"cafe"},"geometry":{"type":"Point","coordinates":[126.92922470000002,37.55492389999999]}},{"type":"Feature","properties":{"osm_id":"node/11727120668","name":"갱스카페","layer":"poi","category":"cafe"},"geometry":{"type":"Point","coordinates":[126.92293660000001,37.56049850000001]}},{"type":"Feature","properties":{"osm_id":"node/11739270911","name":"CU","layer":"poi","category":"convenience"},"geometry":{"type":"Point","coordinates":[126.9201132,37.55090710000001]}},{"type":"Feature","properties":{"osm_id":"node/11744981942","name":"조선 화로구이","layer":"poi","category":"restaurant"},"geometry":{"type":"Point","coordinates":[126.9208306,37.5555222]}},{"type":"Feature","properties":{"osm_id":"node/11744981943","name":"컴포즈커피","layer":"poi","category":"cafe"},"geometry":{"type":"Point","coordinates":[126.92069190000001,37.55624060000001]}},{"type":"Feature","properties":{"osm_id":"node/11744981944","name":"투썸플레이스","layer":"poi","category":"cafe"},"geometry":{"type":"Point","coordinates":[126.92022739999999,37.5560743]}},{"type":"Feature","properties":{"osm_id":"node/11744981945","name":"CU","layer":"poi","category":"convenience"},"geometry":{"type":"Point","coordinates":[126.9192644,37.555775499999996]}},{"type":"Feature","properties":{"osm_id":"node/11744981946","name":"히트커피로스터스","layer":"poi","category":"cafe"},"geometry":{"type":"Point","coordinates":[126.9183542,37.5552539]}},{"type":"Feature","properties":{"osm_id":"node/11749383956","name":"롯데리아","layer":"poi","category":"fast_food"},"geometry":{"type":"Point","coordinates":[126.9287615,37.558267900000004]}},{"type":"Feature","properties":{"osm_id":"node/11749394959","name":"Shake Shack","layer":"poi","category":"fast_food"},"geometry":{"type":"Point","coordinates":[126.9257174,37.5578368]}},{"type":"Feature","properties":{"osm_id":"node/11749396110","name":"","layer":"poi","category":"fast_food"},"geometry":{"type":"Point","coordinates":[126.92780959999999,37.558548599999995]}},{"type":"Feature","properties":{"osm_id":"node/11770741869","name":"","layer":"poi","category":"restaurant"},"geometry":{"type":"Point","coordinates":[126.92314000000002,37.5596573]}},{"type":"Feature","properties":{"osm_id":"node/11780387592","name":"CU","layer":"poi","category":"convenience"},"geometry":{"type":"Point","coordinates":[126.9222151,37.5566856]}},{"type":"Feature","properties":{"osm_id":"node/11794874669","name":"코코리코","layer":"poi","category":"bakery"},"geometry":{"type":"Point","coordinates":[126.9242172,37.562377000000005]}},{"type":"Feature","properties":{"osm_id":"node/11799204279","name":"","layer":"poi","category":"cafe"},"geometry":{"type":"Point","coordinates":[126.9232455,37.561954599999986]}},{"type":"Feature","properties":{"osm_id":"node/11799527169","name":"","layer":"poi","category":"cafe"},"geometry":{"type":"Point","coordinates":[126.92158289999999,37.559793799999994]}},{"type":"Feature","properties":{"osm_id":"node/11799527269","name":"이스트사이드 치킨 샌드위치","layer":"poi","category":"restaurant"},"geometry":{"type":"Point","coordinates":[126.92148900000001,37.5599069]}},{"type":"Feature","properties":{"osm_id":"node/11811112608","name":"벌스투","layer":"poi","category":"cafe"},"geometry":{"type":"Point","coordinates":[126.9211675,37.56023739999999]}},{"type":"Feature","properties":{"osm_id":"node/11811112619","name":"일더하기이분의일","layer":"poi","category":"cafe"},"geometry":{"type":"Point","coordinates":[126.92034650000001,37.561116000000005]}},{"type":"Feature","properties":{"osm_id":"node/11811113969","name":"","layer":"poi","category":"cafe"},"geometry":{"type":"Point","coordinates":[126.9223936,37.558882499999996]}},{"type":"Feature","properties":{"osm_id":"node/11811114169","name":"","layer":"poi","category":"convenience"},"geometry":{"type":"Point","coordinates":[126.922698,37.5589282]}},{"type":"Feature","properties":{"osm_id":"node/11811114170","name":"","layer":"poi","category":"fast_food"},"geometry":{"type":"Point","coordinates":[126.92241909999998,37.55912229999999]}},{"type":"Feature","properties":{"osm_id":"node/11811117972","name":"","layer":"poi","category":"restaurant"},"geometry":{"type":"Point","coordinates":[126.9220681,37.559166]}},{"type":"Feature","properties":{"osm_id":"node/11811117973","name":"메가MGC커피","layer":"poi","category":"cafe"},"geometry":{"type":"Point","coordinates":[126.92176020000001,37.5594309]}},{"type":"Feature","properties":{"osm_id":"node/11811118169","name":"","layer":"poi","category":"restaurant"},"geometry":{"type":"Point","coordinates":[126.92218350000002,37.55912519999999]}},{"type":"Feature","properties":{"osm_id":"node/11811118171","name":"GS25","layer":"poi","category":"convenience"},"geometry":{"type":"Point","coordinates":[126.92172330000001,37.5596685]}},{"type":"Feature","properties":{"osm_id":"node/11811132407","name":"컴포즈커피","layer":"poi","category":"cafe"},"geometry":{"type":"Point","coordinates":[126.92133899999999,37.5598706]}},{"type":"Feature","properties":{"osm_id":"node/11811132412","name":"","layer":"poi","category":"convenience"},"geometry":{"type":"Point","coordinates":[126.9207276,37.56050440000001]}},{"type":"Feature","properties":{"osm_id":"node/11811132526","name":"","layer":"poi","category":"fast_food"},"geometry":{"type":"Point","coordinates":[126.9209839,37.5602356]}},{"type":"Feature","properties":{"osm_id":"node/11811137998","name":"피에스타7커피 연남점","layer":"poi","category":"cafe"},"geometry":{"type":"Point","coordinates":[126.92033660000001,37.5609455]}},{"type":"Feature","properties":{"osm_id":"node/11841458515","name":"냐냐쿤","layer":"poi","category":"pub"},"geometry":{"type":"Point","coordinates":[126.92500229999999,37.5588315]}},{"type":"Feature","properties":{"osm_id":"node/11844574347","name":"GS25","layer":"poi","category":"convenience"},"geometry":{"type":"Point","coordinates":[126.9281698,37.5571382]}},{"type":"Feature","properties":{"osm_id":"node/11844962957","name":"생마차","layer":"poi","category":"pub"},"geometry":{"type":"Point","coordinates":[126.92594410000001,37.5566252]}},{"type":"Feature","properties":{"osm_id":"node/11845020875","name":"백억커피","layer":"poi","category":"cafe"},"geometry":{"type":"Point","coordinates":[126.93025329999999,37.5544812]}},{"type":"Feature","properties":{"osm_id":"node/11845020896","name":"은행골","layer":"poi","category":"restaurant"},"geometry":{"type":"Point","coordinates":[126.92586000000001,37.55661580000001]}},{"type":"Feature","properties":{"osm_id":"node/11881255315","name":"뉴올재즈라운지","layer":"poi","category":"bar"},"geometry":{"type":"Point","coordinates":[126.92076410000001,37.5567916]}},{"type":"Feature","properties":{"osm_id":"node/11891665470","name":"GS25","layer":"poi","category":"convenience"},"geometry":{"type":"Point","coordinates":[126.9214657,37.557799200000005]}},{"type":"Feature","properties":{"osm_id":"node/11891665471","name":"브런치가","layer":"poi","category":"restaurant"},"geometry":{"type":"Point","coordinates":[126.92147790000001,37.558069499999995]}},{"type":"Feature","properties":{"osm_id":"node/11893109070","name":"오스카커피부스","layer":"poi","category":"cafe"},"geometry":{"type":"Point","coordinates":[126.92197469999999,37.5572084]}},{"type":"Feature","properties":{"osm_id":"node/11896292114","name":"젤라떼리아 아라또","layer":"poi","category":"cafe"},"geometry":{"type":"Point","coordinates":[126.92625190000001,37.55596220000001]}},{"type":"Feature","properties":{"osm_id":"node/11896292118","name":"카페이스","layer":"poi","category":"cafe"},"geometry":{"type":"Point","coordinates":[126.92173359999998,37.553466500000006]}},{"type":"Feature","properties":{"osm_id":"node/11896292119","name":"우동가조쿠","layer":"poi","category":"restaurant"},"geometry":{"type":"Point","coordinates":[126.9240777,37.558297399999994]}},{"type":"Feature","properties":{"osm_id":"node/11902795923","name":"쌥이리","layer":"poi","category":"restaurant"},"geometry":{"type":"Point","coordinates":[126.9221936,37.5564809]}},{"type":"Feature","properties":{"osm_id":"node/11903480268","name":"호커보이","layer":"poi","category":"restaurant"},"geometry":{"type":"Point","coordinates":[126.9244258,37.561412]}},{"type":"Feature","properties":{"osm_id":"node/11919336712","name":"Fillday","layer":"poi","category":"restaurant"},"geometry":{"type":"Point","coordinates":[126.9233322,37.562367]}},{"type":"Feature","properties":{"osm_id":"node/11927833206","name":"Pie Republic","layer":"poi","category":"restaurant"},"geometry":{"type":"Point","coordinates":[126.9257081,37.559285599999995]}},{"type":"Feature","properties":{"osm_id":"node/12012437104","name":"세븐일레븐","layer":"poi","category":"convenience"},"geometry":{"type":"Point","coordinates":[126.92063420000001,37.55305620000001]}},{"type":"Feature","properties":{"osm_id":"node/12025417029","name":"Gomango","layer":"poi","category":"fast_food"},"geometry":{"type":"Point","coordinates":[126.92500860000001,37.5589401]}},{"type":"Feature","properties":{"osm_id":"node/12025420685","name":"Brooklyn Bagel Farm","layer":"poi","category":"fast_food"},"geometry":{"type":"Point","coordinates":[126.928474,37.5570547]}},{"type":"Feature","properties":{"osm_id":"node/12025420686","name":"Tom’s Pizza","layer":"poi","category":"fast_food"},"geometry":{"type":"Point","coordinates":[126.92902079999999,37.5570015]}},{"type":"Feature","properties":{"osm_id":"node/12025420687","name":"Grove 177","layer":"poi","category":"cafe"},"geometry":{"type":"Point","coordinates":[126.92927230000001,37.556772800000005]}},{"type":"Feature","properties":{"osm_id":"node/12025420688","name":"탐스칼국수","layer":"poi","category":"restaurant"},"geometry":{"type":"Point","coordinates":[126.9283186,37.556788000000005]}},{"type":"Feature","properties":{"osm_id":"node/12042944955","name":"커피덕","layer":"poi","category":"cafe"},"geometry":{"type":"Point","coordinates":[126.92264400000002,37.5568968]}},{"type":"Feature","properties":{"osm_id":"node/12043042977","name":"원신 카페 인 서울","layer":"poi","category":"cafe"},"geometry":{"type":"Point","coordinates":[126.93047350000002,37.55496260000001]}},{"type":"Feature","properties":{"osm_id":"node/12048337526","name":"GS25","layer":"poi","category":"convenience"},"geometry":{"type":"Point","coordinates":[126.9187913,37.55656539999999]}},{"type":"Feature","properties":{"osm_id":"node/12056422013","name":"닭장수김밥","layer":"poi","category":"restaurant"},"geometry":{"type":"Point","coordinates":[126.9211918,37.5574014]}},{"type":"Feature","properties":{"osm_id":"node/12056604430","name":"진어참치","layer":"poi","category":"restaurant"},"geometry":{"type":"Point","coordinates":[126.9207397,37.56070630000001]}},{"type":"Feature","properties":{"osm_id":"node/12056891555","name":"돈조세","layer":"poi","category":"restaurant"},"geometry":{"type":"Point","coordinates":[126.92454450000001,37.5623792]}},{"type":"Feature","properties":{"osm_id":"node/12058831386","name":"불이아","layer":"poi","category":"restaurant"},"geometry":{"type":"Point","coordinates":[126.9220139,37.5565891]}},{"type":"Feature","properties":{"osm_id":"node/12060329046","name":"라룬비올렛","layer":"poi","category":"restaurant"},"geometry":{"type":"Point","coordinates":[126.92095319999999,37.5575295]}},{"type":"Feature","properties":{"osm_id":"node/12073350194","name":"갯마을","layer":"poi","category":"bar"},"geometry":{"type":"Point","coordinates":[126.91710200000001,37.5580559]}},{"type":"Feature","properties":{"osm_id":"node/12073374841","name":"하루","layer":"poi","category":"bar"},"geometry":{"type":"Point","coordinates":[126.9254374,37.5574347]}},{"type":"Feature","properties":{"osm_id":"node/12073388681","name":"히피히피셰이크","layer":"poi","category":"cafe"},"geometry":{"type":"Point","coordinates":[126.9248788,37.55909309999999]}},{"type":"Feature","properties":{"osm_id":"node/12073397317","name":"나물먹는곰","layer":"poi","category":"restaurant"},"geometry":{"type":"Point","coordinates":[126.921034,37.5514578]}},{"type":"Feature","properties":{"osm_id":"node/12073410555","name":"진화로","layer":"poi","category":"restaurant"},"geometry":{"type":"Point","coordinates":[126.9240361,37.5593985]}},{"type":"Feature","properties":{"osm_id":"node/12073411728","name":"마라공간마라탕","layer":"poi","category":"restaurant"},"geometry":{"type":"Point","coordinates":[126.9245211,37.5561811]}},{"type":"Feature","properties":{"osm_id":"node/12073412573","name":"애쉬앤블룸 1","layer":"poi","category":"restaurant"},"geometry":{"type":"Point","coordinates":[126.92774690000002,37.5557512]}},{"type":"Feature","properties":{"osm_id":"node/12073419664","name":"후레쉬","layer":"poi","category":"restaurant"},"geometry":{"type":"Point","coordinates":[126.92119010000002,37.5599324]}},{"type":"Feature","properties":{"osm_id":"node/12073420001","name":"에이제곱","layer":"poi","category":"cafe"},"geometry":{"type":"Point","coordinates":[126.91815060000002,37.5596138]}},{"type":"Feature","properties":{"osm_id":"node/12073420521","name":"소굴","layer":"poi","category":"restaurant"},"geometry":{"type":"Point","coordinates":[126.92562879999998,37.5566974]}},{"type":"Feature","properties":{"osm_id":"node/12073425991","name":"퐁당#2","layer":"poi","category":"restaurant"},"geometry":{"type":"Point","coordinates":[126.92636619999999,37.5560756]}},{"type":"Feature","properties":{"osm_id":"node/12073430712","name":"벌툰홍대본점","layer":"poi","category":"cafe"},"geometry":{"type":"Point","coordinates":[126.92011129999999,37.55059940000001]}},{"type":"Feature","properties":{"osm_id":"node/12073437680","name":"페스까","layer":"poi","category":"cafe"},"geometry":{"type":"Point","coordinates":[126.927913,37.5571172]}},{"type":"Feature","properties":{"osm_id":"node/12073437967","name":"옹다래찜닭.디저트","layer":"poi","category":"restaurant"},